name,website,description,phone,address,average rating,store shopping,in store pickup,delivery,type,opens at,reviews,category,latitude,longitude
Parques del Río,,"Footpath  cycling route along a manicured riverside corridor of trees, flowers  public artworks.   Dogs allowed",+57 44444141,"Auto. S, Laureles - Estadio, Medellín, Laureles, Medellín, Antioquia, Colombia",4.7,No,No,No,Park,,No reviews available,parks,6.2464119,-75.5803063
Parque de los Pies Descalzos,facebook.com,"Park featuring a sand area, fountains  a green space with a garden, plus a hands-on science museum.   Dogs allowed",+57 43808080,"Cra. 58 #42-125, La Candelaria, Medellín, La Candelaria, Medellín, Antioquia, Colombia",4.5,No,No,No,Park,,No reviews available,parks,6.2604088,-75.5720715
Parque de los Deseos,grupo-epm.com,Children play in this large open plaza featuring food vendors  a big screen for evening movies.   Dogs allowed,,"Cl. 71, Aranjuez, Medellín, Aranjuez, Medellín, Antioquia, Colombia",4.5,No,No,No,City park,,No reviews available,parks,6.2675295,-75.5657492
Lleras Park,comunasdemedellin.com,"Energetic area with a variety of restaurants serving regional cuisine, plus bars  other nightlife.   Dogs allowed",,"Cl 10 #25-18, El Poblado, Medellín, El Poblado, Medellín, Antioquia, Colombia",4.4,No,No,No,Park,,No reviews available,parks,,
Parque de El Poblado,medellin.gov.co,"Green square  central meeting spot with food vendors, artisan craft stalls  surrounding nightlife.   Dogs allowed",,"El Poblado, Medellín, El Poblado, Medellin, Antioquia, Colombia",4.4,No,No,No,Park,,No reviews available,parks,6.227259,-75.5719699
Parque Berrío,medellin.gov.co,"Busy, historic city square with many trees, benches, vendors  a notable statue.   Dogs allowed",,"C. 50, La Candelaria, Medellín, La Candelaria, Medellin, Antioquia, Colombia",4.1,No,No,No,City park,,No reviews available,parks,6.2496895,-75.5684762
Parque Arví,parquearvi.org,"Ecotourism park featuring walking  hiking trails, a food market, a gondola  adventure sports.   Dogs allowed",+57 604 4442979,"Via a Piedras Blancas, Medellín, Antioquia, Colombia",4.7,No,No,No,Park,,No reviews available,parks,6.2688909,-75.498532
Parque Natural Cerro El Volador,parquenaturalcerroelvolador.blogspot.com.co,"This sizable urban park features a grassy hillside for recreation, relaxing  city views.   Dogs allowed",+57 42602416,"Medellín, Robledo, Medellin, Antioquia, Colombia",4.7,No,No,No,Park,,No reviews available,parks,6.27947445,-75.59344289881992
Ciudad del Río Lineal Park,,"Popular urban green space for picnics, recreation  relaxation, along with festivals  other events.   Dogs allowed",,"Cra 43G #2420, El Poblado, Medellín, El Poblado, Medellín, Antioquia, Colombia",4.6,No,No,No,Park,Open 24 hours,No reviews available,parks,,
Parque Norte,parquenorte.gov.co,"Family-friendly theme park with a roller coaster  other rides, plus a playground, lake  eateries.",+57 604 3401210,"Cra. 53 #76-115, Aranjuez, Medellín, Aranjuez, Medellín, Antioquia, Colombia",4.5,No,No,No,Fairground,,No reviews available,parks,6.2833761,-75.5639997
Parque de Boston,,Busy park with popular street food carts  a statue of the 19th-century general José María Córdova.   Dogs allowed,+57 320 2531575,"Cra. 38 #54 - 97, La Candelaria, Medellín, La Candelaria, Medellín, Antioquia, Colombia",4.3,No,No,No,Park,,No reviews available,parks,6.229625,-75.5665613
Parque de la Conservación,parquedelaconservacion.com,"Classic zoo showcasing mammals, birds  reptiles in their habitats, plus concessions.",+57 300 4137847,"Cra. 52 #20-63, Guayabal, Medellín, Guayabal, Medellín, Antioquia, Colombia",4.5,No,No,No,Zoo,Open ⋅ Closes 5 PM,No reviews available,nature_reserves,6.223775099999999,-75.580029981588
Suramericana Park,gruposura.com,Dogs allowed,,"Cl. 49 #63-21, Laureles - Estadio, Medellín, Laureles, Medellín, Antioquia, Colombia",4.5,No,No,No,Nature preserve,,No reviews available,nature_reserves,6.2599111,-75.5930803
El Moral Nature preserve,,Dogs allowed,,"San Cristóbal, Medellin, Antioquia, Colombia",4.9,No,No,No,Nature preserve,,No reviews available,nature_reserves,6.2932501,-75.63450495657575
Reserva natural San Rafael. Centro de conexión con la naturaleza.,facebook.com,Dogs allowed,+57 301 2497006,"Via Vereda El Llano #298, Medellín, Antioquia, Colombia",4.6,No,No,No,Nature preserve,,No reviews available,nature_reserves,,
Natural Park,,,,"Cra. 37, El Poblado, Medellín, El Poblado, Medellín, Antioquia, Colombia",4.3,No,No,No,Park,,No reviews available,nature_reserves,6.1971754,-75.5697176
Piedras Blancas Ecological Park,comfenalcoantioquia.com,"Tranquil park with forested trails, picnic areas, a reservoir with boat rentals  an insect museum.   Dogs allowed",+57 44601100,"Kilómetro 14 antigua vía Piedras Blancas, Guarne, Santa Elena, Antioquia, Colombia",4.7,No,No,No,National park,,No reviews available,nature_reserves,,
Presidenta Park,,"Public park with walking trails  wooden bridges, plus farmers markets  childrens play areas.   Dogs allowed",,"Cra. 39, El Poblado, Medellín, El Poblado, Medellín, Antioquia, Colombia",4.6,No,No,No,Park,,No reviews available,nature_reserves,6.1863523,-75.5736445
Lago Los Patos Ecological Park,,Dogs allowed,,"Medellín, Villa Hermosa, Medellin, Antioquia, Colombia",4.2,No,No,No,Park,,No reviews available,nature_reserves,6.2537332,-75.5489418
Coffee Shop Pergamino Cafe,pergamino.co,Dine-in   Takeout   No-contact delivery,+57 318 8211303,"Cra. 37 #8A-37, El Poblado, Medellín, El Poblado, Medellín, Antioquia, Colombia",4.7,No,No,No,Coffee shop,,No reviews available,eco_cafes,6.2082227,-75.5671131
Café Noir Bar & Lounge,cafenoircolombia.com,Dine-in   Takeout   Delivery,+57 322 6508588,"Cl. 8 #37a41, El Poblado, Medellín, El Poblado, Medellín, Antioquia, Colombia",4.8,No,No,Yes,Cafe,Open ⋅ Closes 11 PM,No reviews available,eco_cafes,6.2091283,-75.5711224
Naturalia Café,qrco.de,"Laid-back hub with a garden terrace offering pizzas, sandwiches  pastries, plus live music nights.   Dine-in   Takeout   No-contact delivery",+57 301 6252244,"Cq. 3 #70-39, Laureles - Estadio, Medellín, Laureles, Medellín, Antioquia, Colombia",4.6,No,No,No,Restaurant,,No reviews available,eco_cafes,,
"Rituales café | Tienda de café especial, café en Medellín, ""Somos el café del barrio La Sierra"", café y brunch",ritualescafe.co,Dine-in   Takeout   Delivery,+57 304 1143372,"Cq. 74A #39b-22, Laureles - Estadio, Medellín, Laureles, Medellín, Antioquia, Colombia",4.7,No,No,Yes,Coffee shop,Open ⋅ Closes 8 PM,No reviews available,eco_cafes,,
Cafe Fundación.,facebook.com,Dine-in   Takeout,+57 305 3140682,"Tv. 41 #72-24, Laureles - Estadio, Medellín, Laureles, Medellín, Antioquia, Colombia",4.9,No,No,No,Cafe,,No reviews available,eco_cafes,,
Hija Mía Coffee MANILA,hijamiacoffee.com,Dine-in   Takeout   No-contact delivery,+57 43663788,"Cl 11A #43b -9, El Poblado, Medellín, El Poblado, Medellín, Antioquia, Colombia",4.7,No,No,No,Coffee shop,,No reviews available,eco_cafes,6.2117251,-75.5642072
"PERGAMINO Café Calle 10B, Medellín",pergamino.co,Dine-in   Takeout   Delivery,+57 318 8211303,"Cl. 10b #36-38, El Poblado, Medellín, El Poblado, Medellín, Antioquia, Colombia",4.8,No,No,Yes,Coffee store,,No reviews available,eco_cafes,6.2106451,-75.5658813
AMA - Vegan Restaurant,ola.click,Dine-in   Takeout,+57 304 2622923,"Cl. 12 #43b - 31, El Poblado, Medellín, El Poblado, Medellín, Antioquia, Colombia",4.7,No,No,No,Vegan restaurant,,No reviews available,eco_cafes,,
INA Restaura,,Dine-in   Takeout   No-contact delivery,+57 310 5981589,"Cq. 4 # 71-92, Laureles - Estadio, Medellín, Laureles, Medellín, Antioquia, Colombia",4.6,No,No,No,Health food restaurant,,No reviews available,eco_cafes,,
Selva Café & Arte,instagram.com,Dine-in   Takeout,,"Cl. 47 #70-22, Laureles - Estadio, Medellín, Laureles, Medellín, Antioquia, Colombia",4.7,No,No,No,Art cafe,,No reviews available,eco_cafes,6.2525937,-75.5895909
Café Zorba,cafezorba.com.co,"Straightforward open-air eatery with a patio showcasing pizza, plus craft beer  cocktails.   Dine-in   Takeout   No-contact delivery",+57 4604 4529,"Parque Lineal de la Presidenta, Cl. 8 #42-33, El Poblado, Medellín, El Poblado, Medellín, Antioquia, Colombia",4.7,No,No,No,Restaurant,,No reviews available,eco_cafes,,
General Cafe Bar,sinmente.co,Dine-in   Takeout,+57 314 5031294,"Cl. 13 #43D-84 Local 101, 102, El Poblado, Medellín, El Poblado, Medellín, Antioquia, Colombia",4.7,No,No,No,Coffee shop,,No reviews available,eco_cafes,,
Pergamino | Cafe - Laureles,pergamino.co,Dine-in   Takeout   Delivery,+57 318 8211303,"Cq 73 #34 - 65, Laureles - Estadio, Medellín, Laureles, Medellín, Antioquia, Colombia",4.7,No,No,Yes,Cafe,,No reviews available,eco_cafes,,
madriguera specialty coffee,madrigueracafe.com,Dine-in   Takeout   Delivery,+57 301 6631906,"Cq. 75 #39B-56, Laureles - Estadio, Medellín, Laureles, Medellín, Antioquia, Colombia",4.9,No,No,Yes,Espresso bar,,No reviews available,eco_cafes,,
Le Brunch,instagram.com,Dine-in   Takeout,+57 302 6431822,"Cra. 79 #34 A-138, local 201, Medellín, Antioquia, Colombia",4.8,No,No,No,Restaurant,,No reviews available,eco_cafes,,
Restaurante Okus,,Dine-in   Takeout,+57 305 3295285,"Cl. 14 #30-190, El Poblado, Medellín, El Poblado, Medellín, Antioquia, Colombia",4.7,No,No,No,Restaurant,,No reviews available,local_restaurants,,
Restaurante Mondongo's El Poblado,mondongos.com.co,Dine-in   Takeout   No-contact delivery,+57 604 6048116,"Cl 10 #38-38, El Poblado, Medellín, El Poblado, Medellín, Antioquia, Colombia",4.6,No,No,No,Colombian restaurant,,No reviews available,local_restaurants,6.2096294,-75.5676968
37 Park Medellín | Restaurante Bar,instagram.com,"Laid-back restaurant offering generous burgers  wraps with fries, plus heaping nacho plates.   Dine-in   Takeout   Delivery",+57 310 5966293,"Cra. 37 #8a-4, El Poblado, Medellín, El Poblado, Medellín, Antioquia, Colombia",4.5,No,No,Yes,Bar & grill,Open ⋅ Closes 2 AM,No reviews available,local_restaurants,6.1971754,-75.5697176
La Causa,lacausa.com.co,Dine-in   Takeout   No-contact delivery,+57 316 2228129,"Cra 33 #8A - 41, El Poblado, Medellín, El Poblado, Medellín, Antioquia, Colombia",4.6,No,No,No,Restaurant,,No reviews available,local_restaurants,6.2064064,-75.5642389
El Botánico Restaurante,sinmente.co,Dine-in   Takeout   Delivery,+57 300 4463370,"Cra 33 #7-41, El Poblado, Medellín, El Poblado, Medellín, Antioquia, Colombia",4.4,No,No,Yes,Restaurant,,No reviews available,local_restaurants,6.2064064,-75.5642389
Tal Cual y Mi Ceviche Medellín,instagram.com,Dine-in   Takeout   No-contact delivery,+57 316 4784555,"Cl. 12 #43D-12, El Poblado, Medellín, El Poblado, Medellín, Antioquia, Colombia",4.6,No,No,No,Restaurant,,No reviews available,local_restaurants,,
Restaurante Hatoviejo,hatoviejo.com,Dine-in   Takeout   No-contact delivery,+57 604 3228998,"Cl. 16 #28-60, Medellín, Buenos Aires, Medellín, Antioquia, Colombia",4.6,No,No,No,Colombian restaurant,Open ⋅ Closes 11:55 PM,No reviews available,local_restaurants,6.2147899,-75.5590631
Andaluf,,Dine-in   Curbside pickup   Delivery,+57 314 8456771,"Cra. 36 #8a-88, El Poblado, Medellín, El Poblado, Medellín, Antioquia, Colombia",4.8,No,No,Yes,Restaurant,,No reviews available,local_restaurants,6.211616,-75.5649329
El Rancho de Guelo,facebook.com,Dine-in   Curbside pickup   Delivery,+57 322 6075612,"Cl. 36C #112 b 43 interior 103, La Independencia, Medellín, San Javier, Medellín, Antioquia, Colombia",5.0,No,No,Yes,Family restaurant,,No reviews available,local_restaurants,,
Alambique,alambiquemedellin.com,Stylish garden-themed restaurant turning out creative plates  cocktails adorned with flowers.   Dine-in   Delivery,+57 310 5870362,"Calle10#43a-30, El Poblado, Medellín, El Poblado, Medellín, Antioquia, Colombia",4.6,No,No,Yes,Restaurant,,No reviews available,local_restaurants,,
MAL DE OJO ROOFTOP MEDELLIN,sinmente.co,Dine-in   Takeout,+57 300 3056380,"050021, Medellín, Antioquia, Colombia",4.8,No,No,No,Gastropub,,No reviews available,local_restaurants,6.227259,-75.5719699
Bonhomía,bonhomiamedellin.com,Dine-in   Takeout   No-contact delivery,+57 604 3018518,"Cra. 37 # 8-53, El Poblado, Medellín, El Poblado, Medellín, Antioquia, Colombia",4.6,No,No,No,Restaurant,Open ⋅ Closes 1 AM,No reviews available,local_restaurants,6.1971754,-75.5697176
Restaurante Marmoleo,marmoleorestaurante.com,Dine-in   Takeout   No-contact delivery,+57 311 3118668,"Calle 9a Sur, Cra. 11 #9a-35, Medellín, Antioquia, Colombia",4.6,No,No,No,Restaurant,,No reviews available,local_restaurants,,
Restaurante La Provincia,laprovinciarestaurante.com,Dine-in   Delivery,+57 604 3220192,"Cra. 42 #3 Sur 81 Local 303, El Poblado, Medellín, El Poblado, Medellín, Antioquia, Colombia",4.7,No,No,Yes,Restaurant,,No reviews available,local_restaurants,,
Ceres Organic Market,,,,"Cra. 37 #10a-58, La Candelaria, Medellín, La Candelaria, Medellín, Antioquia, Colombia",4.3,No,No,Yes,Store,,No reviews available,organic_markets,6.2429449,-75.5591767
Tienda De Comercio Justo Colyflor - Fundación Colyflor,tiendacolyflor.com,In-store pickup   Delivery,+57 4738110,"Cl. 48 #65-58, Laureles - Estadio, Medellín, Laureles, Medellín, Antioquia, Colombia",4.6,No,Yes,Yes,Organic food store,Open ⋅ Closes 12 AM,No reviews available,organic_markets,6.2535532,-75.5856961
MerkaOrgánico,merkaorganico.com,In-store shopping   In-store pickup   Delivery,+57 301 4489297,"Centro Comercial El Tesoro, El Poblado, Medellín, El Poblado, Medellín, Antioquia, Colombia",4.3,Yes,Yes,Yes,Store,,No reviews available,organic_markets,6.19702045,-75.5591826240879
Placita de Flórez,placitadeflorez.com,"Storied, old-school market selling produce, meat  fish along with fresh flowers, souvenirs  gifts.",+57 313 4502521,"Cra. 39 #50-25, La Candelaria, Medellín, La Candelaria, Medellín, Antioquia, Colombia",4.5,No,No,No,Traditional market,,No reviews available,organic_markets,6.2500866,-75.5569076
Vita Integral - Laureles,vitaintegral.co,In-store shopping   In-store pickup   Delivery,+57 604 3228482,"Transversal 39B#77-40, Av. Nutibara #77-40, Medellín, Antioquia, Colombia",4.5,Yes,Yes,Yes,Health food store,,No reviews available,organic_markets,,
Natural Market | Mercado Saludable,naturalmarketmed.myshopify.com,,+57 316 8864774,"Cl. 49B #77a13, Laureles - Estadio, Medellín, Laureles, Medellín, Antioquia, Colombia",4.9,No,No,No,Market,,No reviews available,organic_markets,,
Mercafit Medellín,instagram.com,,+57 318 2157424,"Cra. 27 #35 sur-162 Local 126, Quebrada Clara, Envigado, Antioquia, Colombia",5.0,No,No,No,Shopping mall,,No reviews available,organic_markets,,
Plaza Minorista José María Villa,plazaminorista.com,"Spacious indoor marketplace with produce, meat  seafood vendors in a vibrant atmosphere.",+57 43222575,"Cl. 55 #57-80, La Candelaria, Medellín, La Candelaria, Medellín, Antioquia, Colombia",4.4,No,No,No,Market,,No reviews available,organic_markets,6.2525127,-75.5639276
Mercado De La Playa,mercadodelaplaya.com,,+57 310 5216079,"Diagonal al Teatro Pablo Tobón Centro de, Cl. 51 #N° 40 -35, La Candelaria, Medellín, La Candelaria, Medellín, Antioquia, Colombia",4.6,No,No,No,Fresh food market,,No reviews available,organic_markets,,
PLAZA DE MERCADO LA AMÉRICA,plazalaamerica.com,"Old-school food market with vendors for fruit, vegetables, flowers, meat  fish, plus casual dining.",+57 316 4496429,"Cl. 45 # 79A - 100, Los Pinos, Medellín, La América, Medellín, Antioquia, Colombia",4.5,No,No,No,Food products supplier,,No reviews available,organic_markets,,
Farmer’s Market,,,,"Cl. 45 # 79A - 100, Los Pinos, La América, Medellín, Antioquia, Colombia",5.0,No,No,No,Market,,No reviews available,organic_markets,,
Mercados Campesinos (Local farmers market),,,,"Auto. S, Laureles - Estadio, Medellín, Laureles, Medellín, Antioquia, Colombia",5.0,No,No,No,Market,,No reviews available,organic_markets,6.2464119,-75.5803063
Terra Liber,terra-liber.ueniweb.com,,+57 314 2761319,"Cl. 30A # 79-133, Medellín, Belén, Medellín, Antioquia, Colombia",5.0,No,No,No,Farmers' market,,No reviews available,organic_markets,6.2323087,-75.5913797
Eko Market Tienda a Granel,,,+57 305 3458323,"Cl. 19 #43G-100 local 11, El Poblado, Medellín, El Poblado, Medellín, Antioquia, Colombia",5.0,No,No,Yes,Organic shop,,No reviews available,organic_markets,,
ECOMARKET,,,,"ALTO DE MISAEL, DIAGONAL 29 TRANVERSAL28 SUR 38, Medellín, Antioquia, Colombia",,No,No,Yes,Supermarket,,No reviews available,organic_markets,,
OKI Eco-Market,,,+57 302 2703483,,,No,No,No,Delivery Restaurant,,No reviews available,organic_markets,,
Eco Comercial - Venta y compra de ganado,ecocomercial.co,,+57 42606082,"Cra. 74 #48, Laureles - Estadio, Medellín, Laureles, Medellín, Antioquia, Colombia",,No,No,Yes,Natural goods store,,No reviews available,organic_markets,,
Museum of Antioquia,museodeantioquia.co,"Historic art venue featuring native artists Fernando Botero  Pedro Nel Gómez, plus modern works.",+57 604 2513636,"Cl. 52 #52-43, La Candelaria, Medellín, La Candelaria, Medellín, Antioquia, Colombia",4.7,No,No,No,Art museum,,No reviews available,museums,6.2471116,-75.5581675
Memory House Museum,museocasadelamemoria.gov.co,Solemn museum with exhibitions offering different perspectives on Colombian wars  armed conflicts.,+57 604 5202020,"Parque Bicentenario, Cl. 51 #36-66, La Candelaria, Medellín, La Candelaria, Medellín, Antioquia, Colombia",4.6,No,No,No,Museum,,No reviews available,museums,,
El Castillo Museum and Gardens,museoelcastillo.org,"Grand castle-style home-turned-museum in scenic surrounds, offering tours  temporary art exhibits.",+57 2660900,"Cl. 9 Sur #32-269, El Poblado, Medellín, El Poblado, Medellín, Antioquia, Colombia",4.7,No,No,No,History museum,,No reviews available,museums,6.19027165,-75.56964338059701
Medellin Modern Art Museum,elmamm.org,"Museum of modern art with a permanent collection  rotating exhibitions, plus a large movie theater.",+57 604 4442622,"Cra. 44 #19a-100, El Poblado, Medellín, El Poblado, Medellín, Antioquia, Colombia",4.7,No,No,No,Museum,,No reviews available,museums,6.2239589,-75.5742571
Casa Gardeliana,patrimoniomedellin.gov.co,This modest house museum features exhibits on the tango  the singeractor Carlos Gardel.,+57 312 6877284,"Cra. 45 #76-50, El Pomar, Medellín, Manrique, Medellín, Antioquia, Colombia",4.4,No,No,No,Museum,,No reviews available,museums,,
Fundación Casa Museo Maestro Pedro Nel Gómez,museopedronelgomez.org,"Filled with murals  other works, this house-turned-museum of an iconic artist offers guided tours.",+57 44442633,"Cra 51 B #8524, Aranjuez, Medellín, Aranjuez, Medellín, Antioquia, Colombia",4.7,No,No,No,Art museum,,No reviews available,museums,6.2860544,-75.5608852
Cementerio Museo San Pedro,cementeriosanpedro.org.co,"Elaborate, house-like mausoleums of famous Colombian politicians  artists, plus tree-shaded paths.",+57 45167650,"Cra. 51 #68-68, Aranjuez, Medellín, Aranjuez, Medellín, Antioquia, Colombia",4.6,No,No,No,Cemetery,,No reviews available,museums,6.279085,-75.5623276
Planetarium Jesus Emilio Ramirez Medellin,planetariomedellin.org,"Science museum with solar system exhibits  high-tech planetary dome shows, plus a cafe  gift shop.",+57 604 5168300,"Cra. 52 #71-117, Aranjuez, Medellín, Aranjuez, Medellín, Antioquia, Colombia",4.8,No,No,No,Planetarium,,No reviews available,museums,6.2690154,-75.56610527470656
Aquarium Medellin,parqueexplora.org,,+57 604 5168300,"Cra. 53 #7375, Aranjuez, Medellín, Aranjuez, Medellín, Antioquia, Colombia",4.8,No,No,No,Science museum,,No reviews available,museums,6.2833761,-75.5639997
Water Museum EPM,museodelaguaepm.com,Unique musuem with interactive exhibits depicting how water is vital to the earth  civilizations.,+57 43801790,"Parque de los Pies Descalzos, Cra. 57 #42-139, La Candelaria, Medellín, La Candelaria, Medellín, Antioquia, Colombia",4.6,No,No,No,Science museum,,No reviews available,museums,,
Geosciences Mineralogy Museum,minas.medellin.unal.edu.co,,+57 604 4255129,"Av. 80 #65224, Villa Flora, Medellín, Robledo, Medellín, Antioquia, Colombia",4.8,No,No,No,Museum,,No reviews available,museums,6.2734074,-75.593089
University of Antioquia Museum,udea.edu.co,,+57 604 2195180,"Museo Universitario, Universidad de Antioquia #Calle 67 No.53-108, Bloque 15, Aranjuez, Medellín, Aranjuez, Medellín, Antioquia, Colombia",4.9,No,No,No,Museum,,No reviews available,art_galleries,,
Casa Museo Otraparte,otraparte.org,"Modest museum dedicated to writer and philosopher Fernando González, with an on-site cafe.",+57 604 4482404,"Zona Suroriental de Medellín (Poblado, Palmas, Avenida Fernando González, Cra. 43A #27A Sur - 11, Envigado, Antioquia, Colombia",4.7,No,No,No,Heritage museum,,No reviews available,art_galleries,,
COOLTO Art Lodge,,,+57 45017294,"Cra. 36 # 7-32, El Poblado, Medellín, El Poblado, Medellín, Antioquia, Colombia",4.6,No,No,No,Art studio,,No reviews available,art_galleries,6.192228,-75.5708444
Galería Duque Arango,galeriaduquearango.com,,+57 302 3372464,"Cra. 37 #10 a -34, El Poblado, Medellín, El Poblado, Medellín, Antioquia, Colombia",4.8,No,No,No,Art gallery,,No reviews available,art_galleries,6.1971754,-75.5697176
AH Fine Art,ahfineart.com.co,,+57 604 3121014,"Cl 10 #43C - 71, El Poblado, Medellín, El Poblado, Medellín, Antioquia, Colombia",4.8,No,No,No,Art gallery,,No reviews available,art_galleries,,
Galería Pictopia,,,+57 319 6139413,"Cl 11A #42-42, El Poblado, Medellín, El Poblado, Medellín, Antioquia, Colombia",5.0,No,No,No,Art gallery,,No reviews available,art_galleries,6.2117251,-75.5642072
Baryshev Art Gallery,baryshevartgallery.com,,(702) 588-9671,"Cra. 34 #8A-53, El Poblado, Medellín, El Poblado, Medellín, Antioquia, Colombia",5.0,No,No,No,Art gallery,,No reviews available,art_galleries,6.2077605,-75.5652178
Galería Duque Arango Contemporaneo,galeriaduquearango.com,,+57 302 3372464,"Cra. 34 #8a-42, El Poblado, Medellín, El Poblado, Medellín, Antioquia, Colombia",4.5,No,No,No,Art gallery,,No reviews available,art_galleries,6.2077605,-75.5652178
Aspro Art Gallery,asproartgallery.com,,+57 305 4843388,"Cra. 42A #1-15, El Poblado, Medellín, El Poblado, Medellín, Antioquia, Colombia",5.0,No,No,No,Art gallery,,No reviews available,art_galleries,6.2022945,-75.5714003
Galería de Arte Palacio Nacional,,,,"Cra. 53 #46 68 Local 012, La Candelaria, Medellín, La Candelaria, Medellín, Antioquia, Colombia",4.7,No,No,No,Art gallery,,No reviews available,art_galleries,,
Teatro Pablo Tobón Uribe,teatropablotobon.com,,+57 604 2397500,"Cra. 40 #51-24, La Candelaria, Medellín, La Candelaria, Medellín, Antioquia, Colombia",4.7,No,No,No,Performing arts theater,,No reviews available,theaters,6.2434071,-75.5618582
Teatro Metropolitano de Medellín - José Gutierrez Gómez,teatrometropolitano.com,,+57 42324597,"Cl. 41 # 57 - 30, La Candelaria, Medellín, La Candelaria, Medellín, Antioquia, Colombia",4.8,No,No,No,Performing arts theater,,No reviews available,theaters,6.242477,-75.5735238
Pequeño Teatro de Medellín,pequenoteatro.com,,+57 604 4807740,"Cra. 42 #50A-12, La Candelaria, Medellín, La Candelaria, Medellín, Antioquia, Colombia",4.8,No,No,No,Performing arts theater,,No reviews available,theaters,6.2521135,-75.5592649
Teatro Lido,medellin.gov.co,,+57 42515334,"20, Ecuador #54, La Candelaria, Medellín, Antioquia, Colombia",4.3,No,No,No,Performing arts theater,,No reviews available,theaters,,
University of Medellín Theater,,,+57 43405202,"Cra. 87 #30-65, Medellín, Belén, Medellín, Antioquia, Colombia",4.7,No,No,No,Performing arts theater,,No reviews available,theaters,6.2325364,-75.609701
Águila Descalza Prado Theatre,aguiladescalza.com.co,,+57 324 5273770,"Cra. 45D #59-1, La Candelaria, Medellín, La Candelaria, Medellín, Antioquia, Colombia",4.8,No,No,No,Performing arts theater,,No reviews available,theaters,6.2538528,-75.5611158
Teatro Matacandelas,matacandelas.com,,+57 350 2151100,"Cl. 47 #4347, La Candelaria, Medellín, La Candelaria, Medellín, Antioquia, Colombia",4.8,No,No,No,Performing arts theater,,No reviews available,theaters,6.2480047,-75.5718894
Casa Teatro El Poblado,casateatroelpoblado.com,,+57 43211100,"Cra. 47B #17 b sur 30, El Poblado, Medellín, El Poblado, Medellín, Antioquia, Colombia",4.7,No,No,No,Performing arts theater,,No reviews available,theaters,6.188117999999999,-75.58063424013655
Neverland Escuela de Teatro Musical,neverlandteatromusical.com,,,"Cl. 49B #68-112, Laureles - Estadio, Medellín, Laureles, Medellín, Antioquia, Colombia",5.0,No,No,No,Performing arts theater,,No reviews available,theaters,6.2576039,-75.5854958
Comfama Vásquez Building,comfama.com,,+57 45129965,"Cra. 52 #4431, La Candelaria, Medellín, La Candelaria, Medellín, Antioquia, Colombia",4.6,No,No,No,Community center,,No reviews available,community_centers,6.2475635,-75.5705812
Laureles,,,,"El Poblado, Medellín, El Poblado, Medellin, Antioquia, Colombia",5.0,No,No,No,Community center,,No reviews available,community_centers,6.227259,-75.5719699
"בית חב""ד מדג'ין - Chabad Medellin",chabadofmedellin.com,,+57 301 5000724,"Cra. 41a #10 - 54, El Poblado, Medellín, El Poblado, Medellín, Antioquia, Colombia",4.8,No,No,No,Community center,,No reviews available,community_centers,6.2105932,-75.5689635
Centro Integracion Barrial El Raizal,,,+57 42115018,"Cra. 30a #78-35 int 150, Versalles, Medellín, Manrique, Medellín, Antioquia, Colombia",4.3,No,No,No,Community center,,No reviews available,community_centers,,
Preventorio Belen,,,,"Cra. 76A #26-1, Medellín, Belén, Medellín, Antioquia, Colombia",4.3,No,No,No,Community center,,No reviews available,community_centers,6.2252142,-75.5975743
Integrate Medellin,,,,"Cl. 59 #45-53, La Candelaria, Medellín, La Candelaria, Medellín, Antioquia, Colombia",4.6,No,No,No,Community center,,No reviews available,community_centers,6.2588044,-75.5715823
J.A.C EL BOSQUE,,,,"Cl. 79A #54B 006, Aranjuez, Medellín, Aranjuez, Medellín, Antioquia, Colombia",4.3,No,No,No,Community center,,No reviews available,community_centers,6.2734469,-75.5601773
Fundacion Solidaridad y Compromiso - Sede Bello Oriente,,,+57 301 3354965,"Cra. 23 #91b124 BNo.84 B, Maria Cano Carambola, Bello, Medellín, Manrique, Medellín, Antioquia, Colombia",4.2,No,No,No,Community center,,No reviews available,community_centers,,
La Casa - Medellín Community House,mdecommunity.com,,+57 314 2464586,"Cra. 81A #32ee-18, Laureles - Estadio, Medellín, Laureles, Medellín, Antioquia, Colombia",4.8,No,No,No,Event venue,,No reviews available,community_centers,,
Impact Hub Medellín,medellin.impacthub.net,,+57 305 4695347,"Ayurá Center 1, Cl. 26 Sur #48 - 41 Oficina 708, Zona 2, Envigado, Antioquia, Colombia",4.8,No,No,No,Business development service,,No reviews available,community_centers,,
Camelhub - Innovation Hub Coworking,,,+57 45809809,"Carrera 48 A # 16 SUR - 55, Medellín, Antioquia, Colombia",,No,No,No,,,No reviews available,community_centers,,
"Plaza Botero - Medellín, Antioquia",comunasdemedellin.com,"Outdoor plaza showcasing 23 sculptures by artist Fernando Botero, plus landscaped grounds  benches.   Dogs allowed",,"Av. Carabobo, La Candelaria, Medellín, La Candelaria, Medellín, Antioquia, Colombia",4.3,No,No,No,Park,,No reviews available,plazas,6.2475635,-75.5705812
Centro Comercial Premium Plaza,ccpremiumplaza.com,"Contemporary shopping hub with clothing stores, a cinema  gyms, plus a casino  eateries.",+57 604 4487071,"Calle 30, Cra. 43A, Medellín, Antioquia, Colombia",4.5,No,No,No,Shopping mall,,No reviews available,plazas,,
Plazuela Nutibara,,Dogs allowed,,"Cra. 51 #5439, La Candelaria, Medellín, La Candelaria, Medellín, Antioquia, Colombia",4.3,No,No,No,City park,,No reviews available,plazas,6.2383244,-75.5731141
Plaza Cisneros,,"Built in 1924  named after Francisco Javier Cisneros, this plaza features 300 dramatic light poles.   Dogs allowed",,"Cl 44, La Candelaria, Medellín, La Candelaria, Medellín, Antioquia, Colombia",4.3,No,No,No,Park,,No reviews available,plazas,6.2477328,-75.5787519
Unión Plaza Centro Comercial,unionplaza.com.co,"Tree-studded indoor-outdoor retail plaza with a charming, old-fashioned feel  many shops  cafes.",+57 604 4082649,"Cra. 50 #52-50, La Candelaria, Medellín, La Candelaria, Medellín, Antioquia, Colombia",4.4,No,No,No,Shopping mall,,No reviews available,plazas,6.2412528,-75.5711443
Centro Comercial Bosque Plaza,bosqueplaza.com,Compact shopping center offering stores  services as well as a food court  movie theater.,+57 604 2638895,"Cl. 73 #51D- 71, Aranjuez, Medellín, Aranjuez, Medellín, Antioquia, Colombia",4.2,No,No,No,Shopping mall,,No reviews available,plazas,,
San Antonio Park,,"Leafy park with several sculptures by Fernando Botero, plus food vendors  an amphitheater.",,"Cl 44 #50, La Candelaria, Medellín, La Candelaria, Medellín, Antioquia, Colombia",4.0,No,No,No,Plaza,,No reviews available,plazas,6.2477328,-75.5787519
"Plaza Mayor, Medellín",plazamayor.com.co,,+57 42617200,"Cra. 57 # 41-81, La Candelaria, Medellín, La Candelaria, Medellín, Antioquia, Colombia",4.7,No,No,No,Event venue,,No reviews available,plazas,6.2536575,-75.5750147
Centro Comercial Gran Plaza,granplaza.co,Many familiar retailers  a food court are offered at this standard mall with a bustling vibe.,+57 304 5857396,"Cl. 45 #53 50, La Candelaria, Medellín, La Candelaria, Medellín, Antioquia, Colombia",4.5,No,No,No,Shopping mall,,No reviews available,plazas,6.2455891,-75.5695653
Plaza de La Libertad,,Dogs allowed,,"Cra. 54 #42188, La Candelaria, Medellín, La Candelaria, Medellín, Antioquia, Colombia",4.6,No,No,No,Park,,No reviews available,plazas,6.2367797,-75.5757734
Sao Paulo Plaza,,"Venue for retail, offices  lodging, featuring a mall with a supermarket  an airy food court.",+57 43135250,"18 C Sur #43a 200 Sao Pablo Medellin, Antiouqia, Medellín, Antioquia, Colombia",4.5,No,No,No,Shopping mall,,No reviews available,plazas,,
Plaza de las Luces Medellin.,,,,"Cl. 45, La Candelaria, Medellín, La Candelaria, Medellín, Antioquia, Colombia",4.5,No,No,No,Shopping mall,,No reviews available,plazas,6.2455891,-75.5695653
Plaza Carlos E,,Dogs allowed,,"a 64b-56, Cl. 52 #64b-2, Medellín, Antioquia, Colombia",4.7,No,No,No,Park,,No reviews available,plazas,,
Centro Comercial Plaza del Poblado,,,,"Cl 10 #4249, El Poblado, Medellín, El Poblado, Medellín, Antioquia, Colombia",4.3,No,No,No,Shopping mall,,No reviews available,plazas,,
Atanasio Girardot Stadium,comunasdemedellin.com,,,"Cra. 74 #48010, Laureles - Estadio, Medellín, Laureles, Medellín, Antioquia, Colombia",4.7,No,No,No,Stadium,,No reviews available,sports_complexes,6.2483014,-75.5936548
Sports Complex Miraflores,inder.gov.co,,,"Cl. 52 #24-86, Alejandro Echavarría, Medellín, Buenos Aires, Medellín, Antioquia, Colombia",4.5,No,No,No,Sports complex,,No reviews available,sports_complexes,,
Placa Polideportiva Manila,,,,"Cra 43D #1193 11- a, El Poblado, Medellín, El Poblado, Medellín, Antioquia, Colombia",4.4,No,No,No,Sports complex,,No reviews available,sports_complexes,,
Medellin Aquatic Complex,,,+57 44301330,"Carrera 72 # 48-100, Laureles - Estadio, Medellín, Laureles, Medellín, Antioquia, Colombia",4.7,No,No,No,Sports complex,,No reviews available,sports_complexes,6.2480611,-75.5914121
Sports Unit Belén Rincón,,,,"Cra. 76A #1C-5, Medellín, Belén, Medellín, Antioquia, Colombia",4.5,No,No,No,Sports complex,,No reviews available,sports_complexes,6.2252142,-75.5975743
Sport 360º,sport360oficial.com,,+57 314 8103531,"Calle 73 # 51D - 71, Piso 9, Medellín, Antioquia, Colombia",4.4,No,No,No,Sports complex,,No reviews available,sports_complexes,,
Coliseum,,,,"Cra. 65, Medellín, Robledo, Medellín, Antioquia, Colombia",4.8,No,No,No,Sports complex,,No reviews available,sports_complexes,6.2664893,-75.5770838
Medellín Sports Coliseum,,,,"Laureles - Estadio, Medellin, Medellín, Laureles - Estadio, Medellin, Antioquia, Colombia",4.8,No,No,No,Soccer field,,No reviews available,sports_complexes,6.2569524,-75.5826835
Aquatic Complex Atanasio Girardot,,,+57 43699000 ext. 518,"Cl. 48 #7350, Laureles - Estadio, Medellín, Laureles, Medellín, Antioquia, Colombia",4.8,No,No,No,Sports complex,,No reviews available,sports_complexes,6.2535532,-75.5856961
Coliseo Universidad Pontificia Boliviariana,upb.edu.co,,,"Cq. 1 #701, Laureles - Estadio, Medellín, Laureles, Medellín, Antioquia, Colombia",4.6,No,No,No,Sports complex,,No reviews available,sports_complexes,,
COLISEUM TABLE TENNIS,,,+57 304 2075137,"CARRERA 48 #70-10, Laureles - Estadio, Medellín, Laureles, Medellín, Antioquia, Colombia",4.7,No,No,No,Sports complex,,No reviews available,sports_complexes,,
Nómadas Outdoor,nomadasoutdoor.com.co,In-store pickup   Delivery,+57 319 5018092,"Cl. 37 Sur # 37 30, Zona 9, Envigado, Antioquia, Colombia",4.9,No,Yes,Yes,Sporting goods store,,No reviews available,sports_complexes,,
Outdoor Adventure CC. El Tesoro,tiendasoa.com,In-store shopping   In-store pickup   Delivery,+57 322 4514254,"Kra. 25A, Centro Comercial El Tesoro #1A SUR - 45 Local 1255, Medellín, Antioquia, Colombia",4.3,Yes,Yes,Yes,Outdoor clothing and equipment shop,Open ⋅ Closes 9 PM,No reviews available,sports_complexes,,
Almacen de Camping,almacendecamping.com,In-store shopping   Curbside pickup   Delivery,+57 604 4114759,"Cra. 78 #45e-75, Los Pinos, Medellín, La América, Medellín, Antioquia, Colombia",4.7,Yes,No,Yes,Outdoor sports store,,No reviews available,sports_complexes,,
JLB Sports,jlbsports.com,In-store shopping   Curbside pickup   Delivery,+57 310 4624859,"Cl 45B #75-20, Laureles - Estadio, Medellín, Laureles, Medellín, Antioquia, Colombia",4.8,Yes,No,Yes,Outdoor sports store,,No reviews available,sports_complexes,6.2508731,-75.5949085
El Norteño,,In-store pickup   Delivery,+57 45806660,"Cra. 43 #31-183 Galerias de, Local 102, Medellín, Antioquia, Colombia",4.4,No,Yes,Yes,Sporting goods store,,No reviews available,sports_complexes,,
REBAJAS MEDELLIN,,,+57 313 6789448,"Cl. 41 #88-28, Santa Monica, Medellín, La América, Medellín, Antioquia, Colombia",4.0,No,No,Yes,Outdoor sports store,,No reviews available,sports_complexes,6.2503006,-75.6085293
Zaffari Sport,zaffarisport.com,,,"Cl. 30A #26, Medellín, Belén, Medellín, Antioquia, Colombia",4.1,No,No,Yes,Outdoor sports store,,No reviews available,sports_complexes,6.2325235,-75.6036326
Patines Cityrun,cityrun.com.co,In-store pickup   Delivery,+57 316 5694963,"050024, Medellín, Antioquia, Colombia",4.9,No,Yes,Yes,Outdoor sports store,,No reviews available,sports_complexes,6.214512166666666,-75.58747378333334
Vida Simple granel ecológico Mercado Saludable,vidasimplegranel.com,In-store shopping   In-store pickup   Delivery,+57 305 3221745,"Carrera 76, Cq 74 #26, Medellín, Antioquia, Colombia",4.8,Yes,Yes,Yes,Natural goods store,,No reviews available,zero_waste_stores,,
Éxito,exito.com,In-store shopping   Curbside pickup   Delivery,+57 1 800 0428800,"Cl 10 #43E-135, El Poblado, Medellín, El Poblado, Medellín, Antioquia, Colombia",4.4,Yes,No,Yes,Supermarket,,No reviews available,zero_waste_stores,6.2119995,-75.5747158
Zonazul Mercado Saludable,zonazul.co,,,"El Poblado, Medellín, El Poblado, Medellin, Antioquia, Colombia",3.5,No,No,Yes,Health and beauty shop,,No reviews available,zero_waste_stores,6.227259,-75.5719699
Cero Waste - Mercado Ecológico,cerowasteshop.com,In-store shopping   Curbside pickup   Delivery,+57 317 6354622,"Cra. 36 #54-96, Cabecera del llano, Bucaramanga, Santander, Colombia",5.0,Yes,No,Yes,Organic food store,,No reviews available,zero_waste_stores,7.1149053,-73.108393
Carulla - Laureles,carulla.com,In-store shopping   Curbside pickup   Delivery,+57 1 800 0428800,"Tv. 39B #73B-22, Laureles - Estadio, Medellín, Laureles, Medellín, Antioquia, Colombia",4.4,Yes,No,Yes,Supermarket,,No reviews available,zero_waste_stores,,
PriceSmart,shop.pricesmart.com,In-store shopping   Curbside pickup   Delivery,,"Cra. 70 #1-120, Guayabal, Medellín, Guayabal, Medellín, Antioquia, Colombia",4.5,Yes,No,Yes,Warehouse store,,No reviews available,zero_waste_stores,6.2290448,-75.5913486
Homecenter,homecenter.com.co,In-store shopping   Curbside pickup   Delivery,+57 320 8899933,"Cra. 49, Av. Las Vegas #14-135, Medellín, El Poblado, Colombia",4.4,Yes,No,Yes,Building materials store,,No reviews available,zero_waste_stores,,
Raíz Cuidado a Granel,,In-store pickup   Delivery,+57 305 4229831,"Raiz Cuidado a Granel, Cra 43D #10-77, El Poblado, Envigado, Medellín, El Poblado, Medellín, Antioquia, Colombia",,No,Yes,Yes,Cosmetics store,,No reviews available,zero_waste_stores,,
EcoShopping,ecoshopping.com.co,In-store shopping   Curbside pickup   Delivery,+57 318 3807099,"Cra. 48a #118-22, Medellín, Santa Cruz, Medellín, Antioquia, Colombia",4.0,Yes,No,Yes,Formal wear store,,No reviews available,zero_waste_stores,6.3058397,-75.5497015
Éxito,exito.com,Dine-in   Curbside pickup   No-contact delivery,+57 1 800 0428800,"Cra 66B #34A-25, Laureles - Estadio, Medellín, Laureles, Medellín, Antioquia, Colombia",4.5,No,No,No,Supermarket,,No reviews available,zero_waste_stores,6.2398475,-75.5893775
Jumbo,tiendasjumbo.co,In-store shopping   In-store pickup   Delivery,+57 604 7240401,"Cra. 44 #29-80, La Candelaria, Medellín, La Candelaria, Medellín, Antioquia, Colombia",4.5,Yes,Yes,Yes,Supermarket,,No reviews available,zero_waste_stores,6.2394563,-75.5680822
Éxito La 33,exito.com,In-store shopping   Curbside pickup   Delivery,+57 1 800 0428800,"Cra 66B #32D - 35, Medellín, Belén, Medellín, Antioquia, Colombia",4.3,Yes,No,Yes,Supermarket,,No reviews available,zero_waste_stores,6.238312,-75.5867056
Jumbo,tiendasjumbo.co,In-store shopping   In-store pickup   Delivery,+57 604 5013020,"Cra. 65 #45-85, Laureles - Estadio, Medellín, Laureles, Medellín, Antioquia, Colombia",4.3,Yes,Yes,Yes,Supermarket,,No reviews available,zero_waste_stores,6.2579258,-75.5803428
éxito Vecino Aventura,exito.com,Dine-in   Curbside pickup   No-contact delivery,+57 1 800 0428800,"Cl. 67 #53 - 28, La Candelaria, Medellín, La Candelaria, Medellín, Antioquia, Colombia",4.2,No,No,No,Supermarket,,No reviews available,zero_waste_stores,6.2643966,-75.5674954
Éxito La 70,exito.com,Dine-in   Curbside pickup   No-contact delivery,+57 1 800 0428800,"Cra. 70 #43 - 31, Laureles - Estadio, Medellín, Laureles, Medellín, Antioquia, Colombia",4.2,No,No,No,Supermarket,,No reviews available,zero_waste_stores,6.258591,-75.5860942
Organic Nails Medellin Floresta,,In-store shopping   In-store pickup   Delivery,+57 324 2712264,"Av. 80 #46 -70 int 201, Laureles - Estadio, Medellín, Laureles, Medellín, Antioquia, Colombia",4.9,Yes,Yes,Yes,Cosmetics store,,No reviews available,organic_beauty_stores,,
Productos de belleza ecológicos - Maquilla sin químicos - Ocre Cosmética Natural,ocrecosmetica.com,,+57 301 6513933,"Cra. 67 #43-11 segundo piso, Laureles - Estadio, Medellín, Laureles, Medellín, Antioquia, Colombia",5.0,No,No,No,Cosmetic products manufacturer,Open ⋅ Closes 3 PM,No reviews available,organic_beauty_stores,,
Orgánika Healthy Store,,In-store pickup   Delivery,+57 300 6426740,"Cl 10A #37-23, El Poblado, Medellín, El Poblado, Medellín, Antioquia, Colombia",4.6,No,Yes,Yes,Health and beauty shop,,No reviews available,organic_beauty_stores,6.2111042,-75.5696074
Organic Nails Medellin Megacentro,api.whatsapp.com,In-store shopping   Curbside pickup   Delivery,+57 312 4966268,"Cra. 53 #47-22, La Candelaria, Medellín, La Candelaria, Medellín, Antioquia, Colombia",5.0,Yes,No,Yes,Beauty supply store,,No reviews available,organic_beauty_stores,6.2605638,-75.5681167
SÁBILA Y BIENESTAR | Sábila | Productos Naturales | Salud y Belleza,,In-store shopping   Curbside pickup   Delivery,+57 604 5915550,"Cra. 75 #28-13 Primer piso, Medellín, Belén, Medellín, Antioquia, Colombia",5.0,Yes,No,Yes,Health and beauty shop,Open ⋅ Closes 9 PM,No reviews available,organic_beauty_stores,,
Professional Beauty Shop,facebook.com,,+57 318 5712308,"Cra. 53 #46-49, La Candelaria, Medellín, La Candelaria, Medellín, Antioquia, Colombia",5.0,No,No,Yes,Beauty supply store,,No reviews available,organic_beauty_stores,6.2605638,-75.5681167
GOVE NAILS BELÉN,bit.ly,In-store pickup   Delivery,+57 321 8745683,"Cl. 30 # 76a - 15, Medellín, Belén, Medellín, Antioquia, Colombia",5.0,No,Yes,Yes,Beauty supply store,,No reviews available,organic_beauty_stores,6.2311634,-75.6040513
Tienda Naturista Annie Naturals,annienaturals.com,In-store shopping   Curbside pickup   Delivery,+57 300 3458131,"Cra. 53 # 49-82, La Candelaria, Medellín, La Candelaria, Medellín, Antioquia, Colombia",4.9,Yes,No,Yes,Natural goods store,Open ⋅ Closes 7 PM,No reviews available,organic_beauty_stores,6.2605638,-75.5681167
Naturalis Keratina by Natural Cosmetics,,,+57 300 8353424,,5.0,No,No,Yes,Beauty supply store,,No reviews available,organic_beauty_stores,,
PR Natural Cosmetics,,,+57 301 4271503,"Cl. 47DD #82 A 84, La Floresta, Medellín, La América, Medellín, Antioquia, Colombia",,No,No,No,Health and beauty shop,,No reviews available,organic_beauty_stores,6.2596502,-75.6018122
Natural lashes,,,+57 43532994,"Cl. 30A #87-217, Medellín, Belén, Medellín, Antioquia, Colombia",5.0,No,No,Yes,Cosmetics store,,No reviews available,organic_beauty_stores,6.2333171,-75.5839284
Natural sant,naturalsant.com.co,,+57 311 7399332,"Cra. 54 #46-71 Local 9971, La Candelaria, Medellín, La Candelaria, Medellín, Antioquia, Colombia",4.2,No,No,No,Cosmetic products manufacturer,,No reviews available,organic_beauty_stores,,
Witchy natural cosmetics,,,+57 310 5196979,"050035, Calasanz, Medellín, Antioquia, Colombia",5.0,No,No,No,Beauty product supplier,,No reviews available,organic_beauty_stores,6.2639372,-75.5986367
Natural Look La 80,facebook.com,In-store pickup   Delivery,+57 42111133,"Cl. 80B #80B-2, Aranjuez, Medellín, Aranjuez, Medellín, Antioquia, Colombia",4.8,No,Yes,Yes,Beauty supply store,,No reviews available,organic_beauty_stores,,
fuente de vida cosmetica natural,,In-store shopping   Delivery,+57 317 2756895,"Cra. 95b #49ac01, Belencito, Medellín, San Javier, Medellín, Antioquia, Colombia",5.0,Yes,No,Yes,Cosmetics store,,No reviews available,organic_beauty_stores,,
Colombian Happy Grow Shop,colombianhappy.com,Dine-in   No-contact delivery   Takeout,+57 305 3233087,"Casa jardinera 👩🏽‍🌾 Belén Fátima, Cra 66A #32b 36, Medellín, Belén, Medellín, Antioquia, Colombia",4.5,No,No,No,Farm shop,,No reviews available,recycled_products_shops,,
Fuxion Medellin,ifuxion.com,In-store shopping   Delivery,+57 315 5335695,"Cra. 76 #49-74, Laureles - Estadio, Medellín, Laureles, Medellín, Antioquia, Colombia",5.0,Yes,No,Yes,Organic shop,,No reviews available,recycled_products_shops,6.2424685,-75.5969108
Makro,tienda.makro.com.co,In-store shopping   In-store pickup   Delivery,+57 604 4305708,"Cl 10 #50-171, Guayabal, Medellín, Guayabal, Medellín, Antioquia, Colombia",4.4,Yes,Yes,Yes,Department store,,No reviews available,recycled_products_shops,,
COMPRA DE RECICLAJE,,,+57 43439711,"Cra. 76 #26A-36, Medellín, Belén, Medellín, Antioquia, Colombia",4.5,No,No,No,Recycling center,,No reviews available,recycled_products_shops,6.2312782,-75.5961934
Reevapers Laureles,reevapers.com,In-store shopping   In-store pickup   Delivery,+57 314 5529660,"Cra 66B #1-53, Laureles - Estadio, Medellín, Laureles, Medellín, Antioquia, Colombia",4.8,Yes,Yes,Yes,Vaporizer store,,No reviews available,recycled_products_shops,6.2398475,-75.5893775
MAKENO,makeno.co,In-store shopping   In-store pickup   Delivery,+57 305 2232590,"Cra. 37 #10-35, El Poblado, Medellín, El Poblado, Medellín, Antioquia, Colombia",4.7,Yes,Yes,Yes,Clothing store,,No reviews available,recycled_products_shops,6.2098106,-75.566372
El Hueco (centro comercial),elhueco.com.co,,+57 45122473,"Cl. 46 #54114 54- a, La Candelaria, Medellín, La Candelaria, Medellín, Antioquia, Colombia",4.4,No,No,No,Shopping mall,,No reviews available,recycled_products_shops,,
Oviedo,oviedo.com.co,"Large, contemporary center providing a wide range of retail shops, restaurants  fast-food outlets.",+57 604 3216116,"Cra. 43A #6s-15, El Poblado, Medellín, El Poblado, Medellín, Antioquia, Colombia",4.6,No,No,No,Shopping mall,,No reviews available,recycled_products_shops,6.2227272,-75.5693286
Alih Jewelry,instagram.com,In-store pickup   Delivery,+57 324 3824675,"Cl 38 #65 D - 59, Laureles - Estadio, Medellín, Laureles, Medellín, Antioquia, Colombia",,No,Yes,Yes,Jewelry store,,No reviews available,recycled_products_shops,,
VIDA AUGUSTA,,,+57 43128033,"Cra. 35 #8A-81, El Poblado, Medellín, El Poblado, Medellín, Antioquia, Colombia",4.5,No,No,No,,,No reviews available,recycled_products_shops,6.1855621,-75.5715555
Coraje Vegan,instagram.com,Dine-in   Takeout   No-contact delivery,+57 304 4389913,"Pasaje Peatonal, Cl. 13 #43D- 70 Local 103, El Poblado, Medellín, El Poblado, Medellín, Antioquia, Colombia",4.9,No,No,No,Vegan restaurant,,No reviews available,vegan_restaurants,,
Restaurante Kaime - Comida Vegana,kaimefoods.co,Dine-in   Takeout   Delivery,+57 44797029,"Cra. 40 #10 a 21, El Poblado, Medellín, El Poblado, Medellín, Antioquia, Colombia",4.7,No,No,Yes,Vegan restaurant,,No reviews available,vegan_restaurants,,
Alma Natura,,Dine-in   Takeout,+57 300 4658119,"Cl. 32F #65f-15, Medellín, Belén, Medellín, Antioquia, Colombia",4.8,No,No,No,Vegan restaurant,,No reviews available,vegan_restaurants,6.2387017,-75.5863478
Real Vegetal,instagram.com,Dine-in   Takeout,,"Cra. 42 #08 43, El Poblado, Medellín, El Poblado, Medellín, Antioquia, Colombia",4.9,No,No,No,Vegan restaurant,,No reviews available,vegan_restaurants,6.2204231,-75.5682012
Shottas Medellín Vegan Food,instagram.com,Dine-in   Curbside pickup   Delivery,+57 301 2643183,"Cl. 34 #66b-81, Laureles - Estadio, Medellín, Laureles, Medellín, Antioquia, Colombia",4.8,No,No,Yes,Restaurant,Closed ⋅ Opens 1:30 PM,No reviews available,vegan_restaurants,6.2406471,-75.5968569
Las Veganas Restaurant,instagram.com,Dine-in   Curbside pickup   No-contact delivery,+57 312 8576837,"Tv. 35A #66a-73, Laureles - Estadio, Medellín, Laureles, Medellín, Antioquia, Colombia",4.7,No,No,No,Vegan restaurant,,No reviews available,vegan_restaurants,,
Vegan & Veggie,instagram.com,Dine-in   Takeout   No-contact delivery,+57 304 4315616,"Cl. 12 #43D 109, El Poblado, Medellín, El Poblado, Medellín, Antioquia, Colombia",4.7,No,No,No,Vegan restaurant,,No reviews available,vegan_restaurants,,
Helecho Vegan Sushi,instagram.com,Dine-in   Takeout   No-contact delivery,+57 312 5855281,"Cra 43C #10-16, El Poblado, Medellín, El Poblado, Medellín, Antioquia, Colombia",4.8,No,No,No,Vegetarian restaurant,,No reviews available,vegan_restaurants,6.2113407,-75.5718493
Vegarden El Jardín de las Delicias,instagram.com,Dine-in   Takeout   No-contact delivery,+57 604 3662289,"Cl. 32B #81-41, Medellín, Belén, Medellín, Antioquia, Colombia",4.6,No,No,No,Vegetarian restaurant,,No reviews available,vegan_restaurants,6.2360536,-75.5913106
health food store panorama,elpanoramadelasalud.com,In-store shopping   In-store pickup   Delivery,+57 300 7750952,"edificio Vicente villa, Cra. 47 #53- 45 local 116, La Candelaria, Medellín, La Candelaria, Medellín, Antioquia, Colombia",5.0,Yes,Yes,Yes,Vitamin & supplements store,,No reviews available,health_food_stores,,
Tienda Naturista natural store's,,,+57 43174539,"L-102 El Poblado #18s-135, Medellín, Antioquia, Colombia",5.0,No,No,Yes,Health food store,,No reviews available,health_food_stores,,
Vita Integral Poblado,vitaintegral.co,In-store shopping   Curbside pickup   Delivery,+57 300 2004516,"Cra. 42 #5, El Poblado, Medellín, El Poblado, Medellín, Antioquia, Colombia",4.9,Yes,No,Yes,Supermarket,,No reviews available,health_food_stores,,
Nuts Distribuidora Almacentro,,In-store shopping   In-store pickup   Delivery,+57 310 8153548,"Cra. 43A #34-95 Local 299A, La Candelaria, Medellín, La Candelaria, Medellín, Antioquia, Colombia",4.5,Yes,Yes,Yes,Health food store,,No reviews available,health_food_stores,,
Vitantegral Mercado Saludable,,In-store pickup   Delivery,+57 302 2798531,"Cra. 42 #43 #5 Sur, El Poblado, Medellín, El Poblado, Medellín, Antioquia, Colombia",4.7,No,Yes,Yes,Grocery store,,No reviews available,health_food_stores,,
Almendra Alimentación Integral,m.facebook.com,In-store pickup   Delivery,,"Cl. 30 #7569, Medellín, Belén, Medellín, Antioquia, Colombia",5.0,No,Yes,Yes,Organic food store,,No reviews available,health_food_stores,6.2311634,-75.6040513
FUXION MEDELLIN,ifuxion.com,In-store shopping   In-store pickup   Delivery,+57 313 3806470,"Cl. 43 #70 a 39, Laureles - Estadio, Medellín, Laureles, Medellín, Antioquia, Colombia",5.0,Yes,Yes,Yes,Organic shop,Open ⋅ Closes 11 PM,No reviews available,health_food_stores,,
Batido. Smoothies & Paninis,instagram.com,Dine-in   Curbside pickup   No-contact delivery,,"Cra. 34 #8a-53, El Poblado, Medellín, El Poblado, Medellín, Antioquia, Colombia",4.9,No,No,No,Restaurant,,No reviews available,juice_bars,6.2077605,-75.5652178
Finas Frutas N°1,,Dine-in   Takeout,+57 321 7399032,"Cra. 36 #7, El Poblado, Medellín, El Poblado, Medellín, Antioquia, Colombia",5.0,No,No,No,Juice shop,,No reviews available,juice_bars,,
Juguería Del Hijo El Dios Simeon,,Dine-in   Takeout,,"Cra 66B #31 A 10, Medellín, Belén, Medellín, Antioquia, Colombia",5.0,No,No,No,Juice shop,,No reviews available,juice_bars,6.238711,-75.5874724
The Juice Bar,,Dine-in   Curbside pickup,+57 324 6249064,"Cra. 43E #11-37, El Poblado, Medellín, El Poblado, Medellín, Antioquia, Colombia",5.0,No,No,No,Gastropub,,No reviews available,juice_bars,6.2128759,-75.5731082
Arami Jugo De Naranja 100% Natural,,Dine-in   Takeout,,"34b #66a- a 66a-, Cra. 54 #42188, Medellín, Antioquia, Colombia",,No,No,No,Juice shop,,No reviews available,juice_bars,,
Disfruta 100% fruta,,Dine-in   Takeout,,"Cl. 43 #70-33 a 70-1, Laureles - Estadio, Medellín, Laureles, Medellín, Antioquia, Colombia",5.0,No,No,No,Juice shop,,No reviews available,juice_bars,6.24389,-75.5943766
Betty's Bowls,bettysbowls.com,Dine-in   Drive-through   No-contact delivery,+57 321 6969520,"Cra. 32d #7a # 7a-77 Local 01, El Poblado, Medellín, El Poblado, Medellín, Antioquia, Colombia",4.7,No,No,No,Health food restaurant,,No reviews available,juice_bars,,
Berry Healthy,,In-store pickup   Delivery,+57 315 8967211,"Cra. 25 #3-45, El Poblado, Medellín, El Poblado, Medellín, Antioquia, Colombia",4.1,No,Yes,Yes,Organic food store,,No reviews available,juice_bars,6.1955227,-75.5585233
Vibras Café,,Dine-in   Curbside pickup   Delivery,+57 350 8868647,"Cl. 32B #81 - 19, Medellín, Belén, Medellín, Antioquia, Colombia",4.8,No,No,Yes,Espresso bar,,No reviews available,juice_bars,6.2360536,-75.5913106
Carulla 24/7 Oviedo,carulla.com,In-store shopping   Curbside pickup   Delivery,+57 1 800 0428800,"Cra. 43A #6 Sur 145, El Poblado, Medellín, El Poblado, Medellín, Antioquia, Colombia",4.6,Yes,No,Yes,Supermarket,,No reviews available,juice_bars,,
Carulla Poblado,carulla.com,Dine-in   No-contact delivery,+57 1 800 0428800,"Cl 11A #42-49, El Poblado, Medellín, El Poblado, Medellín, Antioquia, Colombia",4.4,No,No,No,Supermarket,,No reviews available,juice_bars,6.2117251,-75.5642072
Santa Leña,santaleña.com,Dine-in   Takeout   No-contact delivery,+57 604 4087560,"Laureles, Transversal 39#74a-04, Laureles - Estadio, Medellín, Antioquia, Colombia",4.5,No,No,No,Espresso bar,,No reviews available,juice_bars,,
MAHAI.WELLNESS Massage Spa,mahaiwellness-spa.com,,+57 300 5939800,"Cra. 36 #8a 46 Floor 2, El Poblado, Medellín, El Poblado, Medellín, Antioquia, Colombia",4.9,No,No,No,Massage spa,,No reviews available,wellness_centers,,
Jazzy Maids Empreza De Aseo - Servicio de limpieza,jazzymaidservices.com,,+57 305 4604668,"Cl 11A #31a44, El Poblado, Medellín, El Poblado, Medellín, Antioquia, Colombia",4.9,No,No,No,House cleaning service,,No reviews available,wellness_centers,6.2117251,-75.5642072
IVY Wellness Center & Spa - Masajes Massages Laureles Medellin,ivywellnesscenter.co,,,"Cq. 4 #73-64, Laureles - Estadio, Medellín, Laureles, Medellín, Antioquia, Colombia",4.9,No,No,No,Massage spa,,No reviews available,wellness_centers,,
Akzara Spa - WELLNESS CENTER,akzaraspa.com,,+57 300 3208295,"Carrera 36 # 1 sur - 75 sector Milla de Oro Frente al edificio Bliss a dos cuadras del hotel Poblado, Medellín, Antioquia, Colombia",4.7,No,No,No,Spa and health club,,No reviews available,wellness_centers,,
"5 Elementos SPA, IPS & Wellness Center Medellin",spa5elementos.com.co,,+57 604 2040308,"Cra 48A #10sur-191, El Poblado, Medellín, El Poblado, Medellín, Antioquia, Colombia",4.4,No,No,No,Spa,,No reviews available,wellness_centers,,
Terapias de Relajación Medellín / Masajes en Medellín,terapiasderelajacionmedellin.com,,+57 333 2489720,"Cra. 84 #37-35, Santa Monica, Medellín, La América, Medellín, Antioquia, Colombia",4.9,No,No,No,Massage spa,,No reviews available,wellness_centers,6.2449304,-75.6063411
Etérea wellness Center,site.agendapro.com,,+57 322 5733013,"Cra. 37 #8 - 41, El Poblado, Medellín, El Poblado, Medellín, Antioquia, Colombia",4.9,No,No,No,Wellness center,,No reviews available,wellness_centers,,
HEAL Medicina Integrativa / Integrative Medicine,,,+57 316 1334318,"Cra. 47B #17bsur25, El Poblado, Medellín, El Poblado, Medellín, Antioquia, Colombia",5.0,No,No,No,Wellness center,,No reviews available,wellness_centers,,
"Medicina Regenerativa, Funcional y Ortomolecular Cuerpo&mente",cuerpoymente.com.co,,+57 301 3494589,"Cl. 7 #39 - 197 Consultorio 1717, El Poblado, Medellín, El Poblado, Medellín, Antioquia, Colombia",4.9,No,No,No,Wellness center,,No reviews available,wellness_centers,,
Dra. Marcela Barreto - Medicina Alternativa,instagram.com,,+57 324 4589447,"Salud Vegas Torre Medica, 46-219 a 46-159, Cl. 2 Sur, Medellín, Antioquia, Colombia",5.0,No,No,No,Alternative medicine practitioner,,No reviews available,wellness_centers,,
Dra. Ana María Franco | Medicina Integrativa | Terapias Alternativas,draanamariafranco.com,,+57 310 3307056,"Cl. 19a #44 - 25 Consultorio 1809, El Poblado, Medellín, El Poblado, Medellín, Antioquia, Colombia",5.0,No,No,No,Alternative medicine practitioner,,No reviews available,wellness_centers,,
Medicina Biológica Terapias Integrativas,mbterapias.com,,+57 319 7045844,"Calle 54 # 46 - 27, Consul. 1406, Medellín, Antioquia, Colombia",5.0,No,No,No,Alternative medicine practitioner,,No reviews available,wellness_centers,,
Acupuntura Medellín,acupunturamedellin.com.co,,+57 301 5267431,"Cl. 32F #76 - 56, Laureles - Estadio, Medellín, Belén, Medellín, Antioquia, Colombia",4.9,No,No,No,Holistic medicine practitioner,,No reviews available,wellness_centers,,
Acupunctura & Craniosacral Therapy Medellín,facebook.com,,+57 305 3254663,"Cra. 43B #1451, El Poblado, Medellín, El Poblado, Medellín, Antioquia, Colombia",4.9,No,No,No,Wellness center,,No reviews available,wellness_centers,,
Aportar Vida - Medellín,,,+57 4604 6717,"Cl. 47 #79-48, Laureles - Estadio, Medellín, Laureles, Medellín, Antioquia, Colombia",4.1,No,No,No,Holistic medicine practitioner,,No reviews available,wellness_centers,6.2525937,-75.5895909
Blue Phoenix,bluephoenix.health,,+57 318 4019090,"Torre Medica, Cra. 25a #1a Sur - 45, El Poblado, Medellín, El Poblado, Medellín, Antioquia, Colombia",5.0,No,No,No,Holistic medicine practitioner,,No reviews available,wellness_centers,,
Dr Hernán Darío Carvajal l Medicina Integrativa,bit.ly,,+57 312 6681459,"Cl. 7 Sur #42 - 70 Consultorio 1013, Poblado, Medellín, El Poblado, Medellín, Antioquia, Colombia",5.0,No,No,No,Holistic medicine practitioner,,No reviews available,wellness_centers,,
AlterNativ Health & Wellness,instagram.com,In-store pickup   Delivery,+57 315 7007480,"Cl. 32EE #75C-79, Medellín, Belén, Medellín, Antioquia, Colombia",4.9,No,Yes,Yes,Homeopathic pharmacy,,No reviews available,wellness_centers,,
GANGES - YOGA ESTUDIO - MEDELLIN,gangesyogaestudio.com,,+57 300 8958970,"Cl. 49B #74-22, Laureles - Estadio, Medellín, Laureles, Medellín, Antioquia, Colombia",4.7,No,No,No,Yoga studio,,No reviews available,yoga_studios,6.2576039,-75.5854958
YOGALAB Medellin,yogalab.com.co,,+57 300 7060626,"Edificio Meridian, Cl. 5A #43B 25 Oficina 601, Medellín, Antioquia, Colombia",5.0,No,No,No,Yoga studio,,No reviews available,yoga_studios,,
Smash Hot Yoga and Spa,smash-hotyoga.com,,+57 300 6433593,"Cl. 14 #43D 85, El Poblado, Medellín, El Poblado, Medellín, Antioquia, Colombia",4.6,No,No,No,Wellness center,,No reviews available,yoga_studios,,
Sarasvati Escuela de Yoga,sarasvatiyoga.com.co,,+57 311 7671964,"Cl. 14 #30 - 153, El Poblado, Medellín, El Poblado, Medellín, Antioquia, Colombia",5.0,No,No,No,Yoga studio,,No reviews available,yoga_studios,,
Flying Tree Yoga,flyingtreeyoga.com,,+57 314 7396451,"Tv. 39A #7185, Laureles - Estadio, Medellín, Laureles, Medellín, Antioquia, Colombia",4.8,No,No,No,Yoga studio,,No reviews available,yoga_studios,,
Asociación Centro De Raja Yoga Brahma Kumaris,brahmakumaris.org,,+57 44216214,"Cra. 69 #48d-20, Laureles - Estadio, Medellín, Laureles, Medellín, Antioquia, Colombia",4.5,No,No,No,Yoga studio,,No reviews available,yoga_studios,,
108 Yoga,108yogacolombia.com,,+57 604 2080403,"Cl. 5 Sur #3072, El Poblado, Medellín, El Poblado, Medellín, Antioquia, Colombia",4.9,No,No,No,Yoga studio,,No reviews available,yoga_studios,,
Unity Yoga,unityoga.co,,+57 313 6997729,"Mall La Frontera #local 201, El Poblado, Medellín, El Poblado, Medellín, Antioquia, Colombia",5.0,No,No,No,Yoga studio,,No reviews available,yoga_studios,,
Orchid Yoga,orchidyogastudio.com,,+57 323 5204193,"Cq. 2 #72-30, Laureles - Estadio, Medellín, Laureles, Medellín, Antioquia, Colombia",5.0,No,No,No,Yoga studio,,No reviews available,yoga_studios,,
Escuela Yeymi Yoga,escuelayeymiyoga.com,,+57 316 5614150,"Cq. 3 #70-43, Laureles - Estadio, Medellín, Laureles, Medellín, Antioquia, Colombia",4.9,No,No,No,Yoga studio,,No reviews available,yoga_studios,,
TereYoga=corazon+energía,,,+57 301 6906262,"Dentro del Centro Cultural Palermo, Cl. 9 #42 - 37 Edificio 4 piso, El Poblado, Medellín, El Poblado, Medellín, Antioquia, Colombia",5.0,No,No,No,Yoga studio,,No reviews available,yoga_studios,,
Govindas Escuela de Yoga - Medellín,govindasyogainbound.com,,+57 321 5804676,"La Candelaria, Medellin, Medellín, La Candelaria, Medellin, Antioquia, Colombia",4.9,No,No,No,School,,No reviews available,yoga_studios,6.2505337,-75.5667115
Happy Yoga Medellin,happyyogamedellin.com,,+57 318 8430182,"Cl 37BSur #28 C - 01, La Sebastiana, Envigado, Antioquia, Colombia",4.6,No,No,No,School,,No reviews available,yoga_studios,,
AYA Retreat formerly Guacamayo,ayahuasca-retreat.com,,+57 305 3164723,"Cl 36 #64a-78, Laureles - Estadio, Medellín, Laureles, Medellín, Antioquia, Colombia",5.0,No,No,No,Retreat center,,No reviews available,meditation_centers,6.2438916,-75.6001294
Ciencia de la Espiritualidad Kirpal Ashram,sos.org,,+57 318 3733310,"Cra 81B #4975, Calasanz, Medellín, La América, Medellín, Antioquia, Colombia",4.7,No,No,No,Meditation center,,No reviews available,meditation_centers,6.2650557,-75.5986098
Meditacion Colombia Sede Medellin,meditacioncolombia.org,,+57 314 5539809,"Cl. 23 Sur #43a, Zona 2, Envigado, Antioquia, Colombia",4.5,No,No,No,Meditation center,,No reviews available,meditation_centers,,
Eco Hostel Medellin,ecohostelmedellin.com,,+57 311 6467039,"Finca vegana vereda el roble vereda el roble sector el cristalino, Guatape, Guatapé, Antioquia, Colombia",4.9,No,No,No,,,No reviews available,meditation_centers,,
La Casa de Loto,lacasadeloto.com,,+57 321 6865992,"Vereda El Roble Parte Alta Finca 25, Guatape, Guatapé, Antioquia, Colombia",4.8,No,No,No,Retreat center,Open ⋅ Closes 9 PM,No reviews available,meditation_centers,,
Taichi en el Jardín,instagram.com,,+57 300 6205159,"Jardines del Ed Sura central, Cra. 64B #49 A 30, Laureles - Estadio, Medellín, Laureles, Medellín, Antioquia, Colombia",5.0,No,No,No,Meditation center,,No reviews available,meditation_centers,,
"Centro de estudio de la ciencia del alma, Estadio, Medellin, Antioquia, Colombia",,,+57 42341123,"Cl. 48 #78 A 30, Laureles - Estadio, Medellín, Laureles, Medellín, Antioquia, Colombia",5.0,No,No,No,Meditation center,,No reviews available,meditation_centers,,
Senda Verde Centro de Vida,sendaverde.com.co,,+57 312 6200326,"El Castillo, Vereda La Mosquita, Guarne, Antioquia, Colombia",5.0,No,No,No,Meditation center,,No reviews available,meditation_centers,,
Finca Bienestar Hotel | The Medellin Retreat,medellinretreat.com,,+57 310 5417999,"Finca Bienestar Vereda El Cano, Girardota, Antioquia, Colombia",4.9,No,No,No,,,No reviews available,meditation_centers,,
Ayahuasca House,ayahuasca-house.com,,+57 316 7550952,"Guarne, Antioquia, Colombia",4.9,No,No,No,Retreat center,,No reviews available,meditation_centers,6.2800171,-75.4426875
Sandra Giraldo Mindful Coach,sandragiraldo.com.co,,+57 300 7096499,"Consultorio 1717, Calle 7 39-197 Torre Intermédica Piso 17, Cl. 7 #39-197 Piso 17 Consultorio 1717, Medellín, Antioquia, Colombia",5.0,No,No,No,Wellness center,,No reviews available,meditation_centers,,
Zensei Master,zenseimaster.com,,+57 313 7584075,"Tv 39 #N° 74 B 10, Laureles - Estadio, Medellín, Laureles, Medellín, Antioquia, Colombia",,No,No,No,Mediation service,,No reviews available,meditation_centers,6.24389,-75.5943766
Jennifer Madrigal Mindfulness Coach,jennifer-madrigal.com,,+57 300 7072128,,5.0,No,No,No,Meditation instructor,,No reviews available,meditation_centers,,
Conocimiento de sí mismo,conocimientodesimismo.com.co,,+57 321 6435154,"Av. Carabobo #51-52 Oficina 403, La Candelaria, Medellín, La Candelaria, Medellín, Antioquia, Colombia",5.0,No,No,No,Education center,,No reviews available,meditation_centers,,
Be Mindfulness,bemindfulness.co,,+57 314 6817930,"Cra. 25b #16aa Sur-66 a, Cl. 16aa Sur #28, Medellín, Antioquia, Colombia",4.8,No,No,No,Doctor,,No reviews available,meditation_centers,,
Bike House,bikehouse.co,In-store shopping   In-store pickup   Delivery,+57 320 7085114,"Cra. 43A #31 193, La Candelaria, Medellín, La Candelaria, Medellín, Antioquia, Colombia",4.7,Yes,Yes,Yes,Bicycle Shop,,No reviews available,bike_shops,6.2353257,-75.5701446
Bike Factory Medellin - Tienda de Bicicletas,,In-store shopping   In-store pickup   Delivery,+57 300 8832774,"Cra. 52 # 54-44, La Candelaria, Medellín, La Candelaria, Medellín, Antioquia, Colombia",4.8,Yes,Yes,Yes,Bicycle Shop,,No reviews available,bike_shops,6.2475635,-75.5705812
Bicicletas Medellín,bicicletasmedellin.com.co,In-store shopping   In-store pickup   Delivery,+57 300 3361421,"Cl. 21 Sur #Carrera 43a #06, Los Cristales, Medellín, Envigado, Antioquia, Colombia",4.8,Yes,Yes,Yes,Bicycle Shop,,No reviews available,bike_shops,,
Sabotage Bike Shop,sabotageshop.com,In-store shopping   Curbside pickup   Delivery,+57 317 8323453,"Cl. 3 Sur #50D-29, Guayabal, Medellín, Guayabal, Medellín, Antioquia, Colombia",4.8,Yes,No,Yes,Bicycle Shop,,No reviews available,bike_shops,6.2049335,-75.5837243
Zona GW,zonagw.com,In-store pickup   Delivery,+57 301 6949155,"Cra. 43 #30c 28, La Candelaria, Medellín, La Candelaria, Medellín, Antioquia, Colombia",4.3,No,Yes,Yes,Bicycle Shop,,No reviews available,bike_shops,6.25354,-75.5592343
BIKING STORE,,,+57 301 6422292,"Tv. 41 #77-37, Laureles - Estadio, Medellín, Laureles, Medellín, Antioquia, Colombia",4.8,No,No,No,Bicycle repair shop,,No reviews available,bike_shops,,
Cycling Life,instagram.com,In-store shopping   In-store pickup   Delivery,+57 323 2903511,"Av. 80 #53-42, Laureles - Estadio, Medellín, Laureles, Medellín, Antioquia, Colombia",4.7,Yes,Yes,Yes,Bicycle Shop,,No reviews available,bike_shops,,
Villalbike Bicicletas,villalbike.com,In-store pickup   Delivery,+57 604 2565000,"Cra. 70 #25-93, Medellín, Belén, Medellín, Antioquia, Colombia",4.6,No,Yes,Yes,Bicycle Shop,,No reviews available,bike_shops,6.2359434,-75.5915853
Specialized Flagship Medellin,specialized.com,In-store shopping   In-store pickup   Delivery,+57 314 6314439,"Cra. 20 #2 Sur - 62, El Poblado, Medellín, El Poblado, Medellín, Antioquia, Colombia",4.2,Yes,Yes,Yes,Bicycle Shop,,No reviews available,bike_shops,,
Medellin In Bike,,In-store shopping   Curbside pickup   Delivery,+57 350 7597449,"Cra. 70 #13A 25, Medellín, Belén, Medellín, Antioquia, Colombia",4.4,Yes,No,Yes,Bicycle Shop,Open ⋅ Closes 6 PM,No reviews available,bike_shops,6.2359434,-75.5915853
Custom Shop Medellin,,In-store pickup   Delivery,+57 43664524,"Carrera 35a #15b 35 local 112 av palmas Prisma, Medellín, Antioquia, Colombia",4.2,No,Yes,Yes,Bicycle Shop,,No reviews available,bike_shops,,
Electric Vehicle Charging Station,,,,"Cl 11A #42 - 49, El Poblado, Medellín, El Poblado, Medellín, Antioquia, Colombia",,No,No,No,Electric vehicle charging station,,No reviews available,ev_charging_stations,6.2117251,-75.5642072
Electric Vehicle Charging Station,,,,"Cl 10A #22-04, El Poblado, Medellín, El Poblado, Medellín, Antioquia, Colombia",,No,No,No,Electric vehicle charging station,,No reviews available,ev_charging_stations,6.2111042,-75.5696074
Electric Vehicle Charging Station,,,+57 324 4548170,"Cl 36 #53-35, La Candelaria, Medellín, La Candelaria, Medellín, Antioquia, Colombia",5.0,No,No,No,Electric vehicle charging station,,No reviews available,ev_charging_stations,6.2364056,-75.5704713
Electric Vehicle Charging Station,,,,"Medellín, Robledo, Medellin, Antioquia, Colombia",,No,No,No,Electric vehicle charging station,,No reviews available,ev_charging_stations,6.27947445,-75.59344289881992
Electric Vehicle Charging Station,,,,"Cl. 18 #35-69 of 412, El Poblado, Medellín, El Poblado, Medellín, Antioquia, Colombia",,No,No,No,Electric vehicle charging station,,No reviews available,ev_charging_stations,6.227259,-75.5719699
Electric Vehicle Charging Station,,,,"Av. Nutibara, Laureles - Estadio, Medellín, Laureles, Medellín, Antioquia, Colombia",,No,No,No,Electric vehicle charging station,,No reviews available,ev_charging_stations,6.2434114,-75.5936544
Electric Vehicle Charging Station,autolartechevrolet.co,,,"Cra. 50 #32-16, La Candelaria, Medellín, La Candelaria, Medellín, Antioquia, Colombia",,No,No,No,Electric vehicle charging station,,No reviews available,ev_charging_stations,6.2412528,-75.5711443
Electric Vehicle Charging Station,ayuramotorchevrolet.co,,,"Av. Las Vegas #26 Sur-27, Zona 1, Envigado, Medellín, El Poblado, Medellín, Antioquia, Colombia",,No,No,No,Electric vehicle charging station,,No reviews available,ev_charging_stations,,
Electric Vehicle Charging Station,,,,"Cra. 43A #1-50, El Poblado, Medellín, El Poblado, Medellín, Antioquia, Colombia",,No,No,No,Electric vehicle charging station,,No reviews available,ev_charging_stations,6.2227272,-75.5693286
EPM Charging Station,,,,"Cl. 39c #73-07, Laureles - Estadio, Medellín, Laureles, Medellín, Antioquia, Colombia",,No,No,No,Electric vehicle charging station,,No reviews available,ev_charging_stations,6.2456846,-75.5928897
Celsia Charging Station,celsia.com,,+57 313 3741240,"Cl 10 #50-347, Guayabal, Medellín, Guayabal, Medellín, Antioquia, Colombia",3.0,No,No,No,Electric vehicle charging station,,No reviews available,ev_charging_stations,6.2138248,-75.5787242
Celsia Charging Station,celsia.com,,,"Av El Poblado, Cra. 43A #6 S-15, El Poblado, Medellín, Antioquia, Colombia",4.5,No,No,No,Electric vehicle charging station,,No reviews available,ev_charging_stations,,
"Reciclaje ""El Primo""",,,+57 604 3018207,"Cra. 63D #43-67, Laureles - Estadio, Medellín, Laureles, Medellín, Antioquia, Colombia",5.0,No,No,No,Recycling center,,No reviews available,recycling_centers,6.2470687,-75.5820022
Scrap Service SAS,scrapservice.com.co,,+57 314 5934284,"Cl 20 # 65 26, Guayabal, Medellín, Guayabal, Medellín, Antioquia, Colombia",5.0,No,No,No,Recycling center,,No reviews available,recycling_centers,6.2229475,-75.5850175
EXCEDENTES AMBIENTALES JC S.A.S,,,+57 321 5974312,,5.0,No,No,No,Recycling center,,No reviews available,recycling_centers,,
LITO S.A.S,lito.com.co,,+57 42323144,"Cra. 51 #32-102, La Candelaria, Medellín, La Candelaria, Medellín, Antioquia, Colombia",4.9,No,No,No,Recycling center,,No reviews available,recycling_centers,6.2383244,-75.5731141
Sc Recycling S.a.,,,+57 42819068,"Cl. 51 #40-98, Santa Cruz, Itagüi, Antioquia, Colombia",4.7,No,No,No,Recycling center,,No reviews available,recycling_centers,,
comercializadora de exedentes medellin,,,+57 44448357,"Cra. 50C #10s-36, Guayabal, Medellín, Guayabal, Medellín, Antioquia, Colombia",4.0,No,No,No,Recycling center,,No reviews available,recycling_centers,,
Recicladora Cardona García,,,+57 317 2786577,"Cra. 50c #67-51, Aranjuez, Medellín, Aranjuez, Medellín, Antioquia, Colombia",5.0,No,No,No,Bottle & can redemption center,,No reviews available,recycling_centers,6.2831811,-75.5599751
Máquina Ciclo - Estación Universidad,ciclo.com.co,,+57 312 3214627,"Aranjuez, Medellín, Aranjuez, Medellin, Antioquia, Colombia",5.0,No,No,No,Bottle & can redemption center,,No reviews available,recycling_centers,6.2805129,-75.5655199
RECIMED - ECA Jesús Nazareno,reciclaje.com.co,,+57 604 6041023,"Calle 58 #51D – 26, Centro de Acopio Municipal Nº 2, Medellín, Antioquiqa, Colombia",4.9,No,No,No,Recycling center,,No reviews available,recycling_centers,,
Fundación Recuperambiente - Reciclaje,,,+57 312 2696894,"Cl. 45A # 63B-37, Laureles - Estadio, Medellín, Laureles, Medellín, Antioquia, Colombia",5.0,No,No,No,Recycling center,,No reviews available,recycling_centers,6.2516857,-75.5964773
EXCEDENTES LA MILAGROSA,,,+57 42554886,"Cra. 56 #9 - 26, Guayabal, Medellín, Guayabal, Medellín, Antioquia, Colombia",5.0,No,No,No,Recycling center,,No reviews available,recycling_centers,6.2121005,-75.5854289
Kaptar nos mueve,kaptarnosmueve.com,,+57 45167770 ext. 1059,"Cra. 64c #78-580, Oleoducto, Medellín, Castilla, Medellín, Antioquia, Colombia",2.0,No,No,No,Recycling center,,No reviews available,recycling_centers,,
Mi Vereda Ambiental,myvambiental.com,,+57 316 0180509,"Cra. 74 #48 b 53, Laureles - Estadio, Medellín, Laureles, Medellín, Antioquia, Colombia",3.0,No,No,No,Waste management service,,No reviews available,recycling_centers,,
Coomulvi,,,+57 300 2110468,"Cl. 60 / Miranda #52-60, La Candelaria, Medellín, La Candelaria, Medellín, Antioquia, Colombia",,No,No,No,Recycling center,,No reviews available,recycling_centers,6.2597569,-75.5707415
JSM Reciclaje,,,+57 321 4697137,"carrera 50 D # 3 Sur 40, Medellín, Antioquia, Colombia",,No,No,No,Recycling center,,No reviews available,recycling_centers,,
EcoPaisa S.A.S,,,+57 312 6507145,"Cl. 120 #52-86, La Frontera, Medellín, Santa Cruz, Medellín, Antioquia, Colombia",5.0,No,No,No,Waste management service,,No reviews available,recycling_centers,6.3054394,-75.5554274
Acopio Basura,,,,"Cra. 37 #50ba-57 a, Cl. 50ba #33, Medellín, Antioquia, Colombia",5.0,No,No,No,Garbage dump,,No reviews available,recycling_centers,,
ECA Reciclajes Willy,,,+57 310 4959400,"Laureles - Estadio, Medellin, Medellín, Laureles - Estadio, Medellin, Antioquia, Colombia",5.0,No,No,No,Waste management service,,No reviews available,recycling_centers,6.2569524,-75.5826835
Unidad Productiva de Reciclaje Los Puentes,,,+57 320 4521520,"Cra. 32 #51-20, Caicedo, Medellín, Buenos Aires, Medellín, Antioquia, Colombia",4.0,No,No,No,Recycling center,,No reviews available,recycling_centers,6.2391201,-75.5556059
Sistema Verde,sistemaverde.com.co,,+57 604 3224414,"Carrera 48a, Cl. 16 Sur # 86, Medellín, Antioquia, Colombia",4.5,No,No,No,Waste management service,,No reviews available,recycling_centers,,
Colombia Solar Energy,,,+57 302 6040844,"Cl. 2b #75D - 49, Medellín, Belén, Medellín, Antioquia, Colombia",4.1,No,No,No,Solar energy equipment supplier,,No reviews available,renewable_energy_companies,,
Solenium,solenium.co,,+57 315 5000797,"Cl. 46 #70A- 79, Laureles - Estadio, Medellín, Laureles, Medellín, Antioquia, Colombia",4.8,No,No,No,Green energy supplier,,No reviews available,renewable_energy_companies,,
MUNDO SOS,mundosos.com,,+57 305 2263342,"Cra 73A # 31A - 20, Medellín, Belén, Medellín, Antioquia, Colombia",5.0,No,No,No,Solar energy equipment supplier,,No reviews available,renewable_energy_companies,6.2228712,-75.5955064
Copérnico S.A.S Energía Solar en Colombia,copernicosas.com,,+57 314 7911660,"Carrera 59, Cl 27B #357 #, Bello, Antioquia, Colombia",4.8,No,No,No,Solar energy equipment supplier,,No reviews available,renewable_energy_companies,,
Nordicol Group,nordicolgroup.com,,+57 323 4331333,"Cra. 81 #52b-162, Calasanz, Medellín, La América, Medellín, Antioquia, Colombia",5.0,No,No,No,Green energy supplier,,No reviews available,renewable_energy_companies,6.2697352,-75.5964414
SOLARWISE COLOMBIA SAS,,,+57 305 3809492,"Cl. 30A #57-68 Local 1, Medellín, Belén, Medellín, Antioquia, Colombia",5.0,No,No,No,Solar energy company,,No reviews available,renewable_energy_companies,,
Enrretech,,,+57 301 5021869,"Cl 11A #42-40, El Poblado, Medellín, El Poblado, Medellín, Antioquia, Colombia",5.0,No,No,No,Solar energy company,,No reviews available,renewable_energy_companies,6.2136341,-75.57361230000001
Enereco Solar S.A.S.,enerecosolar.com,,+57 315 2981271,"Cl. 6 Sur #79 - 150, El Rincon, Medellín, Belén, Medellín, Antioquia, Colombia",,No,No,No,Solar energy company,,No reviews available,renewable_energy_companies,6.204538175413264,-75.59907038263646
Ambiente Soluciones SAS BIC,ambientesoluciones.com,,+57 301 3676492,"Av. 33 #64-226, Laureles - Estadio, Medellín, Laureles, Medellín, Antioquia, Colombia",4.0,No,No,No,Green energy supplier,,No reviews available,renewable_energy_companies,,
One Energy Solutions S.A.S.,onergy.com.co,,+57 317 2116137,"Cl. 15 #35 1 Oficina 301 B Edificio C-34, El Poblado, Medellín, El Poblado, Medellín, Antioquia, Colombia",5.0,No,No,No,Solar energy company,,No reviews available,renewable_energy_companies,,
Biosolar Energy SAS,biosolarenergy.com.co,,+57 300 7562391,"CC MULTICENTRO CARIBE, Cra. 65 #74 75 BG 146, El Progreso, Medellín, Castilla, Medellín, Antioquia, Colombia",5.0,No,No,No,Solar energy equipment supplier,,No reviews available,renewable_energy_companies,,
Solar Plus Energy S.A.S,solarplusonline.com,,+57 313 7330883,"Cra. 65 #8B - 91 Oficina #372, Guayabal, Medellín, Guayabal, Medellín, Antioquia, Colombia",3.4,No,No,No,Solar energy equipment supplier,,No reviews available,renewable_energy_companies,,
ENERGÍA SOLAR SURYA - COLOMBIA,energiasolarsurya.com,,+57 300 5388422,"Cl. 10 Sur #50FF-28, Guayabal, Medellín, Guayabal, Medellín, Antioquia, Colombia",5.0,No,No,No,Solar energy company,,No reviews available,renewable_energy_companies,,
Darwin Energía,darwinenergia.co,,+57 301 5057934,"S48 Towers, Cl 49 Sur #45A-300 Oficina 1404, Zona 8, Envigado, Antioquia, Colombia",4.8,No,No,No,Solar energy equipment supplier,,No reviews available,renewable_energy_companies,,
Ingsolar,,,+57 311 7930083,"Cra. 44a #Calle 93-107 INT 105, Villa Guadalupe, Medellín, Popular, Medellín, Antioquia, Colombia",5.0,No,No,No,Solar energy equipment supplier,,No reviews available,renewable_energy_companies,,
Solar On Colombia,,,,"Av. Oriental #4766, La Candelaria, Medellín, La Candelaria, Medellín, Antioquia, Colombia",5.0,No,No,No,Solar energy company,,No reviews available,renewable_energy_companies,6.246675727766092,-75.56634196473199
Rayos Verdes SAS | Energía Solar,,,+57 300 9294018,"Cl 16A Sur #48 - 30, El Poblado, Medellín, El Poblado, Medellín, Antioquia, Colombia",5.0,No,No,No,Solar energy system service,,No reviews available,renewable_energy_companies,6.185655969375942,-75.56952144141185
Green Services and Solutions,greencss.com,,+57 315 3586834,"Cra. 43 #9 SUR 195, El Poblado, Medellín, El Poblado, Medellín, Antioquia, Colombia",,No,No,No,Technology park,,No reviews available,green_tech_companies,,
"Green View MDS, Tantech Digital Crypto",,,+57 321 7377903,"Calle 49b#64b112 oficina 307 edificio el rectángulo. Junto a Colpensiones de La 65 con, Cl. 49B, Medellín, Antioquia, Colombia",,No,No,No,Corporate office,,No reviews available,green_tech_companies,,
SOLARGREEN,solargreen.com.co,,+57 43223039,"Cra. 43A #1-50, El Poblado, Medellín, El Poblado, Medellín, Antioquia, Colombia",3.7,No,No,No,Corporate office,,No reviews available,green_tech_companies,6.2227272,-75.5693286
Computadores Medellin AB TECH S.A.S,abtech.com.co,,+57 44448148,"Cra. 78 #45E27, Los Pinos, Medellín, La América, Medellín, Antioquia, Colombia",4.6,No,No,No,Computer support and services,,No reviews available,green_tech_companies,,
Greenforest,greenforest.com.co,,+57 302 3951496,"Cra. 43A #31 - 106, La Candelaria, Medellín, La Candelaria, Medellín, Antioquia, Colombia",4.4,No,No,No,Store,,No reviews available,green_tech_companies,6.230094825382436,-75.5697821788025
Branding Tech,,,+57 300 7795627,"Cra. 66AA #34-40, Laureles - Estadio, Medellín, Laureles, Medellín, Antioquia, Colombia",,No,No,No,Software company,,No reviews available,green_tech_companies,,
Experimentality,experimentality.co,,+57 317 5224145,"Cl. 16 #45-85, El Poblado, Medellín, El Poblado, Medellín, Antioquia, Colombia",4.8,No,No,No,Software company,,No reviews available,green_tech_companies,6.21503425,-75.5607023
Green Loop Arquitectura Sostenible e Ingenieria,green-loop.com,,+57 601 4273390,"Cra. 43A #5a - 113 of 501, El Poblado, Medellín, El Poblado, Medellín, Antioquia, Colombia",5.0,No,No,No,Environmental engineer,,No reviews available,green_tech_companies,,
Tecnologia para el sector social,tecnologiaparaelsectorsocial.org,,+57 320 7610176,"Cra. 43A #34 - 95, La Candelaria, Medellín, La Candelaria, Medellín, Antioquia, Colombia",4.4,No,No,No,Computer software store,,No reviews available,green_tech_companies,6.2350031,-75.570971
TechTransit,techtransit.com,,,"Edificio Ofi7, 11-104, Cl. 7 Sur #42 - 145, Medellín, Colombia",,No,No,No,Software company,,No reviews available,green_tech_companies,,
ServiFumigaciones,,,,"La Candelaria, Medellin, Medellín, La Candelaria, Medellin, Antioquia, Colombia",4.4,No,No,No,Pest control service,,No reviews available,eco_cleaning_services,6.2505337,-75.5667115
SafeClean S.A.S,limpiezasegura.com.co,,+57 311 6587002,"Edificio Pizarra, Cl. 61 #75-116 interior 3015, San German, Medellín, Robledo, Medellín, Antioquia, Colombia",4.8,No,No,No,House cleaning service,,No reviews available,eco_cleaning_services,,
Ecocleaning - Servicio de limpieza,ecocleaningcol.com,,+57 323 2040892,"Cl 20 #65-64, Guayabal, Medellín, Guayabal, Medellín, Antioquia, Colombia",,No,No,No,Janitorial service,,No reviews available,eco_cleaning_services,6.222988057397759,-75.58517544809992
Action Clean S.A.S.,actionclean.co,,+57 604 5946677,"Cra. 69 #46-15, Laureles - Estadio, Medellín, Laureles, Medellín, Antioquia, Colombia",4.6,No,No,No,Cleaners,,No reviews available,eco_cleaning_services,6.2514072309801705,-75.58717036700284
Clean And Fresh Medellín,cleanandfreshmed.com,,+57 305 2652254,"Cra 84E #9-29, Medellín, Belén, Medellín, Antioquia, Colombia",5.0,No,No,No,Cleaners,,No reviews available,eco_cleaning_services,6.22078885,-75.60827455
XTREME CLEAN,,,+57 604 3585315,"Av. 33 #66b-107, Medellín, Belén, Medellín, Antioquia, Colombia",5.0,No,No,No,Cleaning products supplier,,No reviews available,eco_cleaning_services,,
Clean Service Solutions,cleanservicesolutions.com,,+57 43294745,"Calle 32F#75C-86, Edificio Centro de Negocio 3/33 . Laureles-Nogal, Medellín, Antioquia, Colombia",4.2,No,No,No,House cleaning service,,No reviews available,eco_cleaning_services,,
Limpiafy: EMPRESA DE ASEO EN MEDELLIN: Empleadas domésticas y aseo,limpiafy.co,,+57 604 5403160,"Cl. 48C #66 07 oficina 200, Laureles - Estadio, Medellín, Laureles, Medellín, Antioquia, Colombia",4.5,No,No,No,House cleaning service,,No reviews available,eco_cleaning_services,,
Grupo Hope S.A.S.,,,+57 300 8933095,"Cra. 43 #33 B SUR 42, Zona 9, Envigado, Antioquia, Colombia",5.0,No,No,No,Pest control service,,No reviews available,eco_cleaning_services,6.1701348,-75.587415
Green Laundry Medellin,,,+57 310 6129629,"C. 50 #77a-45, Laureles - Estadio, Medellín, Laureles, Medellín, Antioquia, Colombia",4.7,No,No,No,Laundromat,,No reviews available,eco_cleaning_services,6.2561291,-75.58102915
Green Company IC SAS,instagram.com,,+57 320 4103337,"Cl. 17 #80b 84, Medellín, Belén, Medellín, Antioquia, Colombia",5.0,No,No,No,Wholesaler,,No reviews available,eco_cleaning_services,,
Green Laundry Sabaneta,,,+57 301 4656552,"Cra. 46C #75Sur-26, Sabaneta, Antioquia, Colombia",4.4,No,No,No,Laundromat,,No reviews available,eco_cleaning_services,,
Lavandería Laundry One - Dry cleaning and water cleaning,,,+57 314 7956044,"Una cuadra arriba de Mondongos de la 70, Cq. 4 #71 - 20, Laureles - Estadio, Medellín, Laureles, Medellín, Antioquia, Colombia",4.9,No,No,No,Laundry,,No reviews available,eco_cleaning_services,,
Procleaner S.A.S. - Productos Limpiadores Biodegradables,procleanersas.com,,+57 44131410,"Cl. 42C #8178, Simón Bolívar, Medellín, La América, Medellín, Antioquia, Colombia",,No,No,No,Cleaning products supplier,,No reviews available,eco_cleaning_services,6.248697570054934,-75.60330701434022
Green Soluciones Ambientales,greensoluciones.com.co,,+57 316 0103106,"Diagonal 52, Av 15A #351 interior 5, Bello, Antioquia, Colombia",4.4,No,No,No,Environmental consultant,,No reviews available,eco_cleaning_services,,
Susanita Díaz community garden,,,+57 44424595,"Cra. 76 #91-45, Kennedy, Medellín, Doce de Octubre, Medellín, Antioquia, Colombia",4.3,No,No,No,Garden,,No reviews available,community_gardens,6.28723498524165,-75.58208132142789
Jardín Botánico de Medellín,botanicomedellin.org,"Botanical garden offering a variety of plant species, educational exhibits  a butterfly house.   Dogs allowed",+57 604 4445500,"Cl. 73 #51d-14, Aranjuez, Medellín, Aranjuez, Medellín, Antioquia, Colombia",4.7,No,No,No,Botanical garden,Open ⋅ Closes 4 PM,No reviews available,community_gardens,,
Orquideorama Jardín Botánico,botanicomedellin.org,Dogs allowed,+57 44445500,"Cl. 41 #40A-26, Aranjuez, Medellín, Aranjuez, Medellín, Antioquia, Colombia",4.8,No,No,No,Botanical garden,,No reviews available,community_gardens,,
Huerta comunitaria Zúñiga,,,,"Cra. 48 ##133, El Poblado, Medellín, Envigado, Antioquia, Colombia",5.0,No,No,No,Community garden,,No reviews available,community_gardens,6.1884606,-75.58301095
UDS MIS PULGUITAS,,,,"Cl. 110 #50-12, La Francia, Medellín, Santa Cruz, Medellín, Antioquia, Colombia",4.1,No,No,No,Community garden,,No reviews available,community_gardens,6.300443257822422,-75.55259867811628
Antejardín y huerta ecológica Ed. Castelo,,,,"Cl. 32C #65 d 07, Medellín, Belén, Medellín, Antioquia, Colombia",,No,No,No,Community garden,,No reviews available,community_gardens,,
pequeños saltarures Garden,,,,"Cl. 70 #59-2, Ducado, Bello, Antioquia, Colombia",4.3,No,No,No,Community garden,,No reviews available,community_gardens,,
Vivero Los Pinos,facebook.com,,+57 323 6224317,"Cra. 96 #49 -26, Metropolitano, Medellín, San Javier, Medellín, Antioquia, Colombia",,No,No,No,Community garden,,No reviews available,community_gardens,6.25732195,-75.61233215
Medellín: Coffee Farm Tour in Barrio La Sierra,urbancoffeetour.com,,+57 304 5966599,"Cra. 50a &, Cl. 46, Medellín, Antioquia, Colombia",5.0,No,No,No,Tour operator,,No reviews available,community_gardens,6.26437445,-75.5610794
Finca Avocado,fincaavocado.com,,+57 310 8794566,"Vereda Quirama, La Ceja-Río Negro #KM6, El Carmen de Viboral, Antioquia, Colombia",4.9,No,No,No,Organic farm,,No reviews available,community_gardens,,
Silletera Finca Los Girasoles,,,+57 313 6376797,"Santa Helena, Santa Elena, Medellin, Antioquia, Colombia",4.8,No,No,No,Farm,,No reviews available,community_gardens,,
Ruta N,rutanmedellin.org,,+57 45167770,"Centro de Innovación y Negociós Ruta N, Cl. 67 #52-20 Piso 2 Torre A, Aranjuez, Medellín, Aranjuez, Medellín, Antioquia, Colombia",4.6,No,No,No,Business center,,No reviews available,community_gardens,,
Becolombia Tours and Travel,,In-store shopping   Delivery,,"Cl 10 #43DD - 9, El Poblado, Medellín, El Poblado, Medellín, Antioquia, Colombia",4.9,Yes,No,Yes,Outlet store,,No reviews available,community_gardens,,
La Casa Grande Coffee Hacienda,lacasagrandecoffeehacienda.com,,+57 302 2224563,"Vía Medellín - Santa Elena km 6, Medellín, Antioquia, Colombia",4.9,No,No,No,,,No reviews available,community_gardens,,
Parque Lineal La Presidenta,,Dogs allowed,,"Cl. 8 #42-25, El Poblado, Medellín, El Poblado, Medellín, Antioquia, Colombia",4.5,No,No,No,Park,,No reviews available,community_gardens,6.209232298768811,-75.57140525045264
Urbania Café,urbaniacafe.com,Dine-in   Curbside pickup   Delivery,+57 314 3631766,"Cl. 8 # 43B - 132, El Poblado, Medellín, El Poblado, Medellín, Antioquia, Colombia",4.7,No,No,Yes,Cafe,,No reviews available,community_gardens,6.2097783,-75.5728254
Medellin City Services,medellincityservices.com,,+57 311 3413715,"Cra. 38 #9 A 26, El Poblado, Medellín, El Poblado, Medellín, Antioquia, Colombia",4.5,No,No,No,Travel agency,,No reviews available,community_gardens,6.209375,-75.5674199
Free Walking Tour Medellin - Real City Tours,realcitytours.com,,+57 319 2622008,"Cra. 51 #41-76, La Candelaria, Medellín, La Candelaria, Medellín, Antioquia, Colombia",5.0,No,No,No,Tour operator,,No reviews available,community_gardens,6.234409886473039,-75.574789613349
Selina Medellin,selina.com,,+57 350 2717217,"Cra. 32d #9 - 17, El Poblado, Medellín, El Poblado, Medellín, Antioquia, Colombia",4.4,No,No,No,,,No reviews available,eco_hotels,6.2078053,-75.5640731
EcoHub Medellin Hotel,ecohubhotelmedellin.com,,+57 604 4809630,"Cl. 14 #30 -170, El Poblado, Medellín, El Poblado, Medellín, Antioquia, Colombia",4.6,No,No,No,,,No reviews available,eco_hotels,6.214839533319338,-75.57511998957793
The Click Clack Hotel Medellín,clickclackhotel.com,,+57 320 4170006,"Cra. 37 #10A 29, El Poblado, Medellín, El Poblado, Medellín, Antioquia, Colombia",4.7,No,No,No,,,No reviews available,eco_hotels,6.2104096,-75.5663346
Marquee Hotel Medellín,linktr.ee,,+57 324 2965314,"Cra. 38 #9A-13, El Poblado, Medellín, El Poblado, Medellín, Antioquia, Colombia",4.8,No,No,No,,,No reviews available,eco_hotels,6.220939467742459,-75.56566529702424
Lleras Green Hotel,llerasgreenhotel.co,,+57 604 4480281,"Cl. 9 #40-30, El Poblado, Medellín, El Poblado, Medellín, Antioquia, Colombia",4.0,No,No,No,,,No reviews available,eco_hotels,6.20950207738814,-75.56988013743744
Eco Hotel Terrabella,ecohotelterrabella.com.co,,+57 301 6430309,"carrera 35 Este # 9 - 175 Corregimiento Santa Elena Sector El Recreo Via Paisandu Santa Elena, Medellín, Antioquia, Colombia",4.5,No,No,No,,,No reviews available,eco_hotels,,
TERRA BIOHOTEL MEDELLÍN,terrabiohotel.com,,+57 604 4759670,"Cl 35 #64a92, Laureles - Estadio, Medellín, Laureles, Medellín, Antioquia, Colombia",4.6,No,No,No,,,No reviews available,eco_hotels,,
Al Bosque Hostal & Glamping,linktr.ee,,+57 301 3426656,"Cl. 51A, Guarne, FCA 130023729400000000, Medellín, Santa Elena, Antioquia, Colombia",4.6,No,No,No,,,No reviews available,eco_hotels,,
Bambú Glamping Ecolodge,,,+57 316 2130862,"Cl. 6 #32-164, El Poblado, Medellín, El Poblado, Medellín, Antioquia, Colombia",4.4,No,No,No,,,No reviews available,eco_hotels,6.2053137,-75.5639496
Skyline Eco Living,skylineecoliving.com,,+57 304 3108503,"Cra. 15 Este, Medellín, Santa Elena, Medellín, Antioquia, Colombia",4.7,No,No,No,,,No reviews available,eco_hotels,,
Teva Glamping & Retreat,tevaretreat.com,,+57 301 6004152,"Km 22 Vereda Sajonia, Via Medellín-Via, Santa Elena, Rionegro, Antioquia, Colombia",4.6,No,No,No,,,No reviews available,eco_hotels,,
Bipolar Brewing Co,,Dine-in   Takeout   No-contact delivery,,"Cra. 43F #16a-8, El Poblado, Medellín, El Poblado, Medellín, Antioquia, Colombia",4.8,No,No,No,Brewpub,,No reviews available,local_breweries,6.221644638570897,-75.57153095909997
Métropole Beer Lab - Poblado / Cerveza artesanal / Craft beer,,Dine-in   Curbside pickup   Delivery,+57 319 5430685,"Cra 43C #9 - 03, El Poblado, Medellín, El Poblado, Medellín, Antioquia, Colombia",4.8,No,No,Yes,Bar,,No reviews available,local_breweries,6.201070485412709,-75.57567980528488
Cervecería Libre,cervecerialibre.com,Dine-in   Takeout   No-contact delivery,+57 300 6060492,"Cra. 44 #25-31, El Poblado, Medellín, El Poblado, Medellín, Antioquia, Colombia",4.7,No,No,No,Brewpub,,No reviews available,local_breweries,6.2248335923252744,-75.57433236109794
La Planta Urban Pub,laplantacerveceria.com,Dine-in   Takeout,+57 301 7862221,"Cra. 45 #32-127, La Candelaria, Medellín, La Candelaria, Medellín, Antioquia, Colombia",4.8,No,No,No,Bar,,No reviews available,local_breweries,6.240582781667418,-75.5688666181468
20Mission Cerveza : Cerveza Artesanal & Gastropub - Musica en Vivo Poblado,20missioncerveza.com,"Airy gastropub with a vibrant atmosphere serving craft beers, plus meals  snacks.   Dine-in   Takeout   No-contact delivery",+57 314 2369478,"Cl. 16 #43F-66, El Poblado, Medellín, El Poblado, Medellín, Antioquia, Colombia",4.6,No,No,No,Brewpub,,No reviews available,local_breweries,6.2170996,-75.5725202
Barrica Brewery,barricacerveceria.com,Dine-in   Takeout   No-contact delivery,+57 305 4269742,"Cl. 9 #43B 22, El Poblado, Medellín, El Poblado, Medellín, Antioquia, Colombia",4.7,No,No,No,Brewpub,,No reviews available,local_breweries,,
Punta Arena,instagram.com,Dine-in   Takeout   No-contact delivery,+57 322 5495656,"Av. Bolivariana #35-40, Laureles - Estadio, Medellín, Laureles, Medellín, Antioquia, Colombia",4.7,No,No,No,Brewpub,,No reviews available,local_breweries,6.239974652764083,-75.58925330282989
"Dominion Brewing, SAS",facebook.com,,+57 300 4642754,"Cl 39A #101a-118, San Javier, Medellín, San Javier, Medellín, Antioquia, Colombia",5.0,No,No,No,Brewery,,No reviews available,local_breweries,6.252768311971651,-75.6189441969075
Medellín Beer Factory,,Dine-in   Takeout   No-contact delivery,+57 43112806,"Cl 10 #36-16, El Poblado, Medellín, El Poblado, Medellín, Antioquia, Colombia",4.3,No,No,No,Bar & grill,,No reviews available,local_breweries,6.208807376944939,-75.56112009146928
Craft Beer Store,,Dine-in   Curbside pickup,+57 319 3716833,"Cl. 9A #38-26, El Poblado, Medellín, El Poblado, Medellín, Antioquia, Colombia",4.7,No,No,No,Gastropub,,No reviews available,local_breweries,6.206440758024091,-75.55367792401508
Villamil Craft Beer,facebook.com,Dine-in   Drive-through   Delivery,+57 301 4295691,"Cl. 52 #39A16, La Candelaria, Medellín, La Candelaria, Medellín, Antioquia, Colombia",4.6,No,No,Yes,Bar,,No reviews available,local_breweries,6.247127659499676,-75.55818297622487
School of Fine Arts and Ceramics,escueladearteyceramica.edu.co,,+57 604 4447525,"Cra. 81A #42B - 26, Simón Bolívar, Medellín, La América, Medellín, Antioquia, Colombia",4.7,No,No,No,Art school,,No reviews available,art_workshops,6.246166786625345,-75.60318218666521
Marmolina y Country,marmolinacountry.com,,+57 604 5873389,"Cra. 81A #42b16, Simón Bolívar, Medellín, La América, Medellín, Antioquia, Colombia",4.7,No,No,No,Art school,,No reviews available,art_workshops,6.246166786625345,-75.60318218666521
La Alegria de Pintar taller de pintura,,,+57 312 2225279,"Cra. 50 #60 - 34, Prado Centro, Medellín, La Candelaria, Medellín, Antioquia, Colombia",4.5,No,No,No,Art studio,,No reviews available,art_workshops,6.263500012098734,-75.5605029721274
Arti Medellín,linktr.ee,In-store pickup   Delivery,+57 310 4257142,"Cl. 49 #51 63 TERCER PISO, La Candelaria, Medellín, La Candelaria, Medellín, Antioquia, Colombia",4.7,No,Yes,Yes,Craft store,,No reviews available,art_workshops,,
Centro Cultural Plazarte,,,+57 45375998,"Cra. 49 # 63a - 37, La Candelaria, Medellín, La Candelaria, Medellín, Antioquia, Colombia",5.0,No,No,No,Cultural center,,No reviews available,art_workshops,6.24507365,-75.5693938
"Portafolio Cultural (Corporación de arte, cultura, educación)",portafoliocultural.org,,+57 44111676,"KR 80-37 18, 05001000, Medellín, Antioquia, Colombia",4.9,No,No,No,Art school,,No reviews available,art_workshops,,
Casa Estudio Pequeños Artistas,pequeñosartistas.com,,+57 311 7407068,"Cl. 32E #76-92, Medellín, Belén, Medellín, Antioquia, Colombia",4.8,No,No,No,Art school,,No reviews available,art_workshops,6.237295078866017,-75.59573455336354
Corporación alArte Talleres,corporacionalartetalleres.com,,+57 313 7315253,"Cra. 78B #32a-89, Medellín, Belén, Medellín, Antioquia, Colombia",5.0,No,No,No,Art school,,No reviews available,art_workshops,,
PolygonUs,polygon.us,,,"Carrera 43 &, Cl. 3 Sur, Medellín, Antioquia, Colombia",5.0,No,No,No,Animation studio,,No reviews available,art_workshops,6.19920035,-75.56882295
"Graffitour, Comuna 13",tourcomuna13.com,,+57 313 5617135,"San Javier, Medellín, San Javier, Medellin, Antioquia, Colombia",4.8,No,No,No,Cultural center,,No reviews available,art_workshops,6.2568002,-75.6137847
Comuna 13,medellintours.co,"Public escalators  staircases covered in colorful street murals, lined with bars  souvenir shops.",+57 301 3387080,"#34cc-2 a 34cc-58, Cra. 110, Medellín, Antioquia, Colombia",4.7,No,No,No,Tourist attraction,Open ⋅ Closes 5 PM,No reviews available,art_workshops,6.250523030033584,-75.6220762087699
Casa Tres Patios,casatrespatios.org,,+57 604 5717798,"Cra. 50A #63-31, La Candelaria, Medellín, La Candelaria, Medellín, Antioquia, Colombia",4.7,No,No,No,Education center,,No reviews available,art_workshops,6.2530503500000005,-75.5670088
Comuna 13 Tours,comuna13tours.com,,+57 302 3744448,"San Javier, Medellín, San Javier, Medellin, Antioquia, Colombia",4.7,No,No,No,Tour operator,Closes soon ⋅ 2 PM ⋅ Opens 10 AM Sun,No reviews available,art_workshops,6.2568002,-75.6137847
Moravia Cultural Center,centroculturalmoravia.org,"Community center offering classes for all ages in art, dance  music, plus performances  talks.",+57 42136010,"Cl. 82a #52-25, Aranjuez, Medellín, Aranjuez, Medellín, Antioquia, Colombia",4.6,No,No,No,Cultural center,,No reviews available,cultural_centers,6.27692655,-75.5644345
Palace of Culture Rafael Uribe Uribe,culturantioquia.gov.co,"Cultural center in an ornate Gothic-revival building with a museum, art gallery  cafe.",+57 43209780,"Carrera 51 #52 01 Medellín Antioquia 050012, Medellín, Antioquia, Colombia",4.7,No,No,No,Cultural center,,No reviews available,cultural_centers,6.257977871635603,-75.56580081851212
Faculty of Arts Cultural Center,udea.edu.co,,+57 324 5455975,"Cra. 64B #51-64, Laureles - Estadio, Medellín, Laureles, Medellín, Antioquia, Colombia",4.6,No,No,No,Cultural center,,No reviews available,cultural_centers,6.242900258612897,-75.58259377056365
Palermo Cultural,filarmed.org,,,"Cl. 9 #Carrera 42-37, El Poblado, Medellín, El Poblado, Medellín, Antioquia, Colombia",4.7,No,No,No,Cultural center,,No reviews available,cultural_centers,,
Casa De La Cultura Los Colores,,,,"Cra. 77B #53-26, Laureles - Estadio, Medellín, Laureles, Medellín, Antioquia, Colombia",4.6,No,No,No,Cultural center,,No reviews available,cultural_centers,6.2651048,-75.59150787721396
Faith and Cultures Center,centrofeyculturas.org.co,,+57 43216321,"Cl. 10 Sur #45-178, El Poblado, Medellín, El Poblado, Medellín, Antioquia, Colombia",4.7,No,No,No,Cultural center,,No reviews available,cultural_centers,6.195181,-75.5760883
Cultural and Youth Center El Poblado,,,,"Cl. 16 Sur #45-25, El Poblado, Medellín, El Poblado, Medellín, Antioquia, Colombia",4.7,No,No,No,Cultural center,,No reviews available,cultural_centers,6.19063944544789,-75.57810269627224
Centro Cultural Nueva Villa de Aburrá,,,+57 604 4083974,"Cra 83 Nro 32DD-30, Medellín, Antioquia, Colombia",4.4,No,No,No,Cultural center,,No reviews available,cultural_centers,,
Ignacio Velez Escobar Environmental & Cultural Center,parquearvi.org,,,"Vereda Piedras Blancas, Santa Elena, Medellín, Antioquia, Colombia",4.7,No,No,No,Cultural center,,No reviews available,cultural_centers,6.2870462,-75.5086853
Fiesta Del Libro Y La Cultura,fiestadellibroylacultura.com,,,"Jardín Botánico, Aranjuez, Medellín, Aranjuez, Medellín, Antioquia, Colombia",4.8,No,No,No,Cultural center,,No reviews available,cultural_centers,6.27053165,-75.56353201197192
Urgent Care Colombia,urgentcarecolombia.com,,(844) 926-2264,"Cra. 38 #18-85, El Poblado, Medellín, El Poblado, Medellín, Antioquia, Colombia",4.9,No,No,No,Urgent care center,,No reviews available,health_clinics,6.220939467742459,-75.56566529702424
Clinic Medellin - El Poblado,clinicamedellin.com,,+57 604 3112800,"Cl. 7 #39-290, El Poblado, Medellín, El Poblado, Medellín, Antioquia, Colombia",3.8,No,No,No,Medical clinic,,No reviews available,health_clinics,,
Clinica Las Americas,lasamericas.com.co,,+57 3421010,"Dg. 75B #2A-80/140, Medellín, Belén, Medellín, Antioquia, Colombia",3.8,No,No,No,Hospital,,No reviews available,health_clinics,,
Clínica de heridas a domicilio medellin,,,+57 321 8888608,"Cl. 32C #66C-64, Medellín, Belén, Medellín, Antioquia, Colombia",5.0,No,No,No,Medical clinic,,No reviews available,health_clinics,,
zen health center,zenhealthcenter.com.co,,+57 324 3098806,"Cra 77C #48 – 67, Laureles - Estadio, Medellín, Laureles, Medellín, Antioquia, Colombia",,No,No,No,Medical Center,,No reviews available,health_clinics,6.260619044634734,-75.59448071520391
Clínica Medellín Sede Occidente,clinicamedellin.com,,+57 604 4446152,"Cra. 65B #30-95, Medellín, Belén, Medellín, Antioquia, Colombia",3.3,No,No,No,Hospital,,No reviews available,health_clinics,6.2326089,-75.58442771992165
Fracture Clinic Medellin - Home Center,cfmed.co,,+57 604 4441516,"Cra. 45 #53 - 38, La Candelaria, Medellín, La Candelaria, Medellín, Antioquia, Colombia",3.7,No,No,No,Orthopedic clinic,,No reviews available,health_clinics,6.240582781667418,-75.5688666181468
Fundación Unimédicos Sede Medellín,unimedicos.com,,+57 333 6029990,"calle 54 # 46 -27, Torre Fundadores Piso 10 - 1005, Medellin, Antioquia, Colombia",4.9,No,No,No,Reproductive health clinic,,No reviews available,health_clinics,,
Clínica Rosario - Poblado,clinicaelrosario.com,,+57 604 3269100,"Cra. 20 #2 sur - 185, El Poblado, Medellín, El Poblado, Medellín, Antioquia, Colombia",3.9,No,No,No,Hospital,,No reviews available,health_clinics,6.1937221000000005,-75.5574858856288
Clinica El Rosario,clinicaelrosario.com,,+57 604 4441555,"Cra. 41 #62-5, Medellín, Villa Hermosa, Medellín, Antioquia, Colombia",3.3,No,No,No,Medical clinic,,No reviews available,health_clinics,6.25562805,-75.55582584999999
You Beautification Clinic Medicina Funcional y Estética Medellin,youbeautification.com,,+57 324 5761913,"Edificio Santacoloma, Cl. 10b #35-08 Local 2, Medellín, Antioquia, Colombia",4.8,No,No,No,Alternative medicine practitioner,,No reviews available,health_clinics,,
Organic Health Medellín,organichealthcolombia.com,,+57 300 3034888,"Cl. 49e #83 A 91, Calasanz Parte Alta, Medellín, La América, Medellín, Antioquia, Colombia",,No,No,No,Organic shop,,No reviews available,health_clinics,,
BioXcellerator Clinic,bioxcellerator.com,,+57 604 6041815,"Carrera 25a #1a Sur - 45, Torre Medica, Ofc 944, Medellín, Antioquia, Colombia",4.8,No,No,No,Research and product development,,No reviews available,health_clinics,,
Medicina Etética & Biológica,,,+57 44234729,"Calle 19 A # 44-25 Torre Salud y Servicios Clínica Prado / Consultorio 1619, Colombia",,No,No,No,Medical clinic,,No reviews available,health_clinics,,
Centro Médico Bioenergético Saint Germain,,,+57 604 4089241,"Cl. 56 #45-07, La Candelaria, Medellín, La Candelaria, Medellín, Antioquia, Colombia",4.6,No,No,No,Community health centre,,No reviews available,health_clinics,6.2491066,-75.55699795000001
Centro Medico ECO,medicoeco.com,,+57 44444484,"Cl. 19a #44 - 25 Consultorio 2210, El Poblado, Medellín, El Poblado, Medellín, Antioquia, Colombia",4.0,No,No,No,Medical group,,No reviews available,health_clinics,,
Naturalness - Medicina Estética,naturalness.com.co,,+57 316 8869755,"Carrera 43 A # 7 Sur 170 Centro Comercial Santafé - Local 3226, Medellín, Antioquia, Colombia",4.8,No,No,No,Medical Center,,No reviews available,health_clinics,,
Sportí I Salud Mental I Tratamiento de Adicciones I Medellín,sporti.com.co,,+57 305 3782898,"Cra. 48 #19a-40 consultorio 1216, El Poblado, Medellín, El Poblado, Medellín, Antioquia, Colombia",4.8,No,No,No,Rehabilitation center,,No reviews available,mental_health_centers,,
Sportí I Salud Mental I Centro de rehabilitación I Medellín,sporti.com.co,,+57 305 3782898,"Torre Médica 1, Cra. 25a #1A Sur - 45 consultorio 1729, El Poblado, Medellín, El Poblado, Medellín, Antioquia, Colombia",5.0,No,No,No,Mental health service,,No reviews available,mental_health_centers,,
